[
  {
    "row": 4,
    "city": "大竹市",
    "name": "栗谷",
    "lon": 132.1573888,
    "lat": 34.3086388
  },
  {
    "row": 5,
    "city": "大竹市",
    "name": "大竹市",
    "lon": 132.2220277,
    "lat": 34.2379722
  },
  {
    "row": 6,
    "city": "大竹市",
    "name": "弥栄ダム(国)",
    "lon": 132.1652778,
    "lat": 34.2355556
  },
  {
    "row": 7,
    "city": "大竹市",
    "name": "湯船(国)",
    "lon": 132.2186111,
    "lat": 34.2530556
  },
  {
    "row": 8,
    "city": "大竹市",
    "name": "大竹(気)",
    "lon": 132.22,
    "lat": 34.2216666
  },
  {
    "row": 9,
    "city": "廿日市市",
    "name": "坊主山",
    "lon": 132.0666666,
    "lat": 34.4966666
  },
  {
    "row": 10,
    "city": "廿日市市",
    "name": "頓原",
    "lon": 132.0875,
    "lat": 34.4519444
  },
  {
    "row": 11,
    "city": "廿日市市",
    "name": "十方山",
    "lon": 132.1222222,
    "lat": 34.5408333
  },
  {
    "row": 12,
    "city": "廿日市市",
    "name": "吉和",
    "lon": 132.137638,
    "lat": 34.484384
  },
  {
    "row": 13,
    "city": "廿日市市",
    "name": "吉和支所",
    "lon": 132.1419444,
    "lat": 34.4869444
  },
  {
    "row": 14,
    "city": "廿日市市",
    "name": "もみのき",
    "lon": 132.1838888,
    "lat": 34.4747222
  },
  {
    "row": 15,
    "city": "廿日市市",
    "name": "中道(国)",
    "lon": 132.0858333,
    "lat": 34.3680556
  },
  {
    "row": 16,
    "city": "廿日市市",
    "name": "小瀬川ダム",
    "lon": 132.1238889,
    "lat": 34.3088889
  },
  {
    "row": 17,
    "city": "廿日市市",
    "name": "浅原",
    "lon": 132.1369166,
    "lat": 34.3433055
  },
  {
    "row": 18,
    "city": "廿日市市",
    "name": "栗栖",
    "lon": 132.1391667,
    "lat": 34.375
  },
  {
    "row": 19,
    "city": "廿日市市",
    "name": "佐伯",
    "lon": 132.1777777,
    "lat": 34.3675
  },
  {
    "row": 20,
    "city": "廿日市市",
    "name": "廿日市津田(気)",
    "lon": 132.192537,
    "lat": 34.36631
  },
  {
    "row": 21,
    "city": "廿日市市",
    "name": "津田(国)",
    "lon": 132.1908333,
    "lat": 34.3711111
  },
  {
    "row": 22,
    "city": "廿日市市",
    "name": "奴メリ谷",
    "lon": 132.2047222,
    "lat": 34.2958333
  },
  {
    "row": 23,
    "city": "廿日市市",
    "name": "馬の口",
    "lon": 132.2348611,
    "lat": 34.3023055
  },
  {
    "row": 24,
    "city": "廿日市市",
    "name": "八坂",
    "lon": 132.2466666,
    "lat": 34.2683333
  },
  {
    "row": 25,
    "city": "廿日市市",
    "name": "矢草南",
    "lon": 132.2616666,
    "lat": 34.3277777
  },
  {
    "row": 26,
    "city": "廿日市市",
    "name": "矢草(国)",
    "lon": 132.2666667,
    "lat": 34.3344444
  },
  {
    "row": 27,
    "city": "廿日市市",
    "name": "矢草北",
    "lon": 132.27,
    "lat": 34.3341666
  },
  {
    "row": 28,
    "city": "廿日市市",
    "name": "大野",
    "lon": 132.2755556,
    "lat": 34.2866667
  },
  {
    "row": 29,
    "city": "廿日市市",
    "name": "中山",
    "lon": 132.2872222,
    "lat": 34.3211111
  },
  {
    "row": 30,
    "city": "廿日市市",
    "name": "友和",
    "lon": 132.2265277,
    "lat": 34.3586666
  },
  {
    "row": 31,
    "city": "廿日市市",
    "name": "玖島",
    "lon": 132.25,
    "lat": 34.3911111
  },
  {
    "row": 32,
    "city": "廿日市市",
    "name": "楢原(国)",
    "lon": 132.25,
    "lat": 34.3911111
  },
  {
    "row": 33,
    "city": "廿日市市",
    "name": "野貝原(国)",
    "lon": 132.2766667,
    "lat": 34.3730556
  },
  {
    "row": 34,
    "city": "廿日市市",
    "name": "原",
    "lon": 132.3053888,
    "lat": 34.3699166
  },
  {
    "row": 35,
    "city": "廿日市市",
    "name": "後畑",
    "lon": 132.3066667,
    "lat": 34.4044444
  },
  {
    "row": 36,
    "city": "廿日市市",
    "name": "地御前(国)",
    "lon": 132.3052778,
    "lat": 34.3375
  },
  {
    "row": 37,
    "city": "廿日市市",
    "name": "宮島町",
    "lon": 132.3125,
    "lat": 34.2961111
  },
  {
    "row": 38,
    "city": "廿日市市",
    "name": "廿日市支所",
    "lon": 132.3431111,
    "lat": 34.3572778
  },
  {
    "row": 39,
    "city": "広島市中区",
    "name": "江波",
    "lon": 132.4360833,
    "lat": 34.3731111
  },
  {
    "row": 40,
    "city": "広島市中区",
    "name": "広島(気)",
    "lon": 132.4616666,
    "lat": 34.3983333
  },
  {
    "row": 41,
    "city": "広島市中区",
    "name": "広島(国)",
    "lon": 132.4616666,
    "lat": 34.3983333
  },
  {
    "row": 42,
    "city": "広島市東区",
    "name": "牛田早稲田",
    "lon": 132.4808888,
    "lat": 34.4185277
  },
  {
    "row": 43,
    "city": "広島市東区",
    "name": "中山新町",
    "lon": 132.5,
    "lat": 34.4208611
  },
  {
    "row": 44,
    "city": "広島市東区",
    "name": "温品(国)",
    "lon": 132.5016667,
    "lat": 34.4375
  },
  {
    "row": 45,
    "city": "広島市東区",
    "name": "福木",
    "lon": 132.5360555,
    "lat": 34.4454722
  },
  {
    "row": 46,
    "city": "広島市南区",
    "name": "西部建設",
    "lon": 132.4683333,
    "lat": 34.3816667
  },
  {
    "row": 47,
    "city": "広島市南区",
    "name": "楠那",
    "lon": 132.4861944,
    "lat": 34.3627222
  },
  {
    "row": 48,
    "city": "広島市西区",
    "name": "井口台",
    "lon": 132.3812222,
    "lat": 34.3795833
  },
  {
    "row": 49,
    "city": "広島市西区",
    "name": "己斐",
    "lon": 132.4255555,
    "lat": 34.4065277
  },
  {
    "row": 50,
    "city": "広島市安佐南区",
    "name": "吉山(国)",
    "lon": 132.3316667,
    "lat": 34.4547222
  },
  {
    "row": 51,
    "city": "広島市安佐南区",
    "name": "戸山(国)",
    "lon": 132.355,
    "lat": 34.4816667
  },
  {
    "row": 52,
    "city": "広島市安佐南区",
    "name": "奥畑",
    "lon": 132.3758333,
    "lat": 34.4586111
  },
  {
    "row": 53,
    "city": "広島市安佐南区",
    "name": "瀬戸内ハイツ",
    "lon": 132.4211111,
    "lat": 34.4744444
  },
  {
    "row": 54,
    "city": "広島市安佐南区",
    "name": "祇園山本",
    "lon": 132.438928,
    "lat": 34.448889
  },
  {
    "row": 55,
    "city": "広島市安佐南区",
    "name": "相田(国)",
    "lon": 132.4411111,
    "lat": 34.4616667
  },
  {
    "row": 56,
    "city": "広島市安佐南区",
    "name": "毘沙門台(国)",
    "lon": 132.4591667,
    "lat": 34.4880556
  },
  {
    "row": 57,
    "city": "広島市安佐南区",
    "name": "高瀬(国)",
    "lon": 132.4997222,
    "lat": 34.4802778
  },
  {
    "row": 58,
    "city": "広島市安佐北区",
    "name": "宇賀",
    "lon": 132.3663888,
    "lat": 34.5275
  },
  {
    "row": 59,
    "city": "広島市安佐北区",
    "name": "くすの木台(国)",
    "lon": 132.3866667,
    "lat": 34.5052778
  },
  {
    "row": 60,
    "city": "広島市安佐北区",
    "name": "沢田(国)",
    "lon": 132.4044444,
    "lat": 34.5575
  },
  {
    "row": 61,
    "city": "広島市安佐北区",
    "name": "小河内(国)",
    "lon": 132.4325,
    "lat": 34.5733333
  },
  {
    "row": 62,
    "city": "広島市安佐北区",
    "name": "久地",
    "lon": 132.4177777,
    "lat": 34.5047222
  },
  {
    "row": 63,
    "city": "広島市安佐北区",
    "name": "小河内",
    "lon": 132.4325,
    "lat": 34.5733333
  },
  {
    "row": 64,
    "city": "広島市安佐北区",
    "name": "飯室(国)",
    "lon": 132.4338889,
    "lat": 34.5352778
  },
  {
    "row": 65,
    "city": "広島市安佐北区",
    "name": "日浦",
    "lon": 132.4389444,
    "lat": 34.5091388
  },
  {
    "row": 66,
    "city": "広島市安佐北区",
    "name": "鈴張(国)",
    "lon": 132.4697222,
    "lat": 34.5836111
  },
  {
    "row": 67,
    "city": "広島市安佐北区",
    "name": "片廻山",
    "lon": 132.4816666,
    "lat": 34.6041666
  },
  {
    "row": 68,
    "city": "広島市安佐北区",
    "name": "勝木",
    "lon": 132.4675,
    "lat": 34.5366666
  },
  {
    "row": 69,
    "city": "広島市安佐北区",
    "name": "綾ヶ谷",
    "lon": 132.4905555,
    "lat": 34.5669444
  },
  {
    "row": 70,
    "city": "広島市安佐北区",
    "name": "南原(国)",
    "lon": 132.5147222,
    "lat": 34.5516667
  },
  {
    "row": 71,
    "city": "広島市安佐北区",
    "name": "堂免橋",
    "lon": 132.5161388,
    "lat": 34.5571666
  },
  {
    "row": 72,
    "city": "広島市安佐北区",
    "name": "上原",
    "lon": 132.5166666,
    "lat": 34.5111944
  },
  {
    "row": 73,
    "city": "広島市安佐北区",
    "name": "大林(国)",
    "lon": 132.5566667,
    "lat": 34.5611111
  },
  {
    "row": 74,
    "city": "広島市安佐北区",
    "name": "安佐北区役所",
    "lon": 132.5077777,
    "lat": 34.5188888
  },
  {
    "row": 75,
    "city": "広島市安佐北区",
    "name": "高陽",
    "lon": 132.5119444,
    "lat": 34.4558333
  },
  {
    "row": 76,
    "city": "広島市安佐北区",
    "name": "三入(気)",
    "lon": 132.53,
    "lat": 34.545
  },
  {
    "row": 77,
    "city": "広島市安佐北区",
    "name": "三入東",
    "lon": 132.5372222,
    "lat": 34.5322222
  },
  {
    "row": 78,
    "city": "広島市安佐北区",
    "name": "深川(国)",
    "lon": 132.5319444,
    "lat": 34.4880556
  },
  {
    "row": 79,
    "city": "広島市安佐北区",
    "name": "狩留家",
    "lon": 132.5808333,
    "lat": 34.4672222
  },
  {
    "row": 80,
    "city": "広島市安佐北区",
    "name": "狩留家(国)",
    "lon": 132.5808333,
    "lat": 34.4672222
  },
  {
    "row": 81,
    "city": "広島市安佐北区",
    "name": "白木山",
    "lon": 132.5780555,
    "lat": 34.5180555
  },
  {
    "row": 82,
    "city": "広島市安佐北区",
    "name": "市川(国)",
    "lon": 132.5922222,
    "lat": 34.535
  },
  {
    "row": 83,
    "city": "広島市安佐北区",
    "name": "三田",
    "lon": 132.6066666,
    "lat": 34.4983333
  },
  {
    "row": 84,
    "city": "広島市安佐北区",
    "name": "白木(三日市)",
    "lon": 132.6436111,
    "lat": 34.5286111
  },
  {
    "row": 85,
    "city": "広島市安佐北区",
    "name": "白木",
    "lon": 132.6436111,
    "lat": 34.5286111
  },
  {
    "row": 86,
    "city": "広島市安佐北区",
    "name": "井原",
    "lon": 132.6697222,
    "lat": 34.5958333
  },
  {
    "row": 87,
    "city": "広島市安佐北区",
    "name": "白木(国)",
    "lon": 132.6436111,
    "lat": 34.5286111
  },
  {
    "row": 88,
    "city": "広島市安芸区",
    "name": "安芸区役所",
    "lon": 132.5258333,
    "lat": 34.3716666
  },
  {
    "row": 89,
    "city": "広島市安芸区",
    "name": "瀬野川",
    "lon": 132.5472222,
    "lat": 34.3922222
  },
  {
    "row": 90,
    "city": "広島市安芸区",
    "name": "立石",
    "lon": 132.5877777,
    "lat": 34.4377777
  },
  {
    "row": 91,
    "city": "広島市安芸区",
    "name": "景浦",
    "lon": 132.5961111,
    "lat": 34.3861111
  },
  {
    "row": 92,
    "city": "広島市安芸区",
    "name": "阿戸",
    "lon": 132.6325,
    "lat": 34.3694444
  },
  {
    "row": 93,
    "city": "広島市安芸区",
    "name": "上瀬野",
    "lon": 132.6322222,
    "lat": 34.4283333
  },
  {
    "row": 94,
    "city": "広島市佐伯区",
    "name": "大谷(国)",
    "lon": 132.1980556,
    "lat": 34.4286111
  },
  {
    "row": 95,
    "city": "広島市佐伯区",
    "name": "赤土地(国)",
    "lon": 132.2497222,
    "lat": 34.4325
  },
  {
    "row": 96,
    "city": "広島市佐伯区",
    "name": "菅沢",
    "lon": 132.2588611,
    "lat": 34.4809722
  },
  {
    "row": 97,
    "city": "広島市佐伯区",
    "name": "重光",
    "lon": 132.2861944,
    "lat": 34.4298056
  },
  {
    "row": 98,
    "city": "広島市佐伯区",
    "name": "佐伯湯来(気)",
    "lon": 132.29,
    "lat": 34.4983333
  },
  {
    "row": 99,
    "city": "広島市佐伯区",
    "name": "湯来(国)",
    "lon": 132.3155556,
    "lat": 34.5244444
  },
  {
    "row": 100,
    "city": "広島市佐伯区",
    "name": "杉並台",
    "lon": 132.3005,
    "lat": 34.432
  },
  {
    "row": 101,
    "city": "広島市佐伯区",
    "name": "五日市観音",
    "lon": 132.3390555,
    "lat": 34.3791666
  },
  {
    "row": 102,
    "city": "広島市佐伯区",
    "name": "彩が丘",
    "lon": 132.3439444,
    "lat": 34.4104444
  },
  {
    "row": 103,
    "city": "広島市佐伯区",
    "name": "魚切ダム",
    "lon": 132.3302778,
    "lat": 34.4283333
  },
  {
    "row": 104,
    "city": "広島市佐伯区",
    "name": "石内(国)",
    "lon": 132.3613889,
    "lat": 34.4411111
  },
  {
    "row": 105,
    "city": "広島市佐伯区",
    "name": "梶毛ダム",
    "lon": 132.3775,
    "lat": 34.4408333
  },
  {
    "row": 106,
    "city": "広島市佐伯区",
    "name": "五月が丘",
    "lon": 132.4051944,
    "lat": 34.4201666
  },
  {
    "row": 107,
    "city": "坂町",
    "name": "坂",
    "lon": 132.5166944,
    "lat": 34.3382777
  },
  {
    "row": 108,
    "city": "府中町",
    "name": "揚倉山",
    "lon": 132.5248888,
    "lat": 34.3948888
  },
  {
    "row": 109,
    "city": "海田町",
    "name": "海田",
    "lon": 132.5452222,
    "lat": 34.3681666
  },
  {
    "row": 110,
    "city": "熊野町",
    "name": "熊野町",
    "lon": 132.5827778,
    "lat": 34.3388889
  },
  {
    "row": 111,
    "city": "江田島市",
    "name": "高祖",
    "lon": 132.4009166,
    "lat": 34.2596111
  },
  {
    "row": 112,
    "city": "江田島市",
    "name": "中町",
    "lon": 132.4386388,
    "lat": 34.2210833
  },
  {
    "row": 113,
    "city": "江田島市",
    "name": "大柿町",
    "lon": 132.4616667,
    "lat": 34.1727778
  },
  {
    "row": 114,
    "city": "江田島市",
    "name": "秋月",
    "lon": 132.49125,
    "lat": 34.2283055
  },
  {
    "row": 115,
    "city": "呉市",
    "name": "宇和木",
    "lon": 132.4988888,
    "lat": 34.1291666
  },
  {
    "row": 116,
    "city": "呉市",
    "name": "尾曽郷",
    "lon": 132.4992777,
    "lat": 34.09325
  },
  {
    "row": 117,
    "city": "呉市",
    "name": "倉橋(気)",
    "lon": 132.5033333,
    "lat": 34.1033333
  },
  {
    "row": 118,
    "city": "呉市",
    "name": "室尾",
    "lon": 132.5405,
    "lat": 34.1
  },
  {
    "row": 119,
    "city": "呉市",
    "name": "田原",
    "lon": 132.50725,
    "lat": 34.1865555
  },
  {
    "row": 120,
    "city": "呉市",
    "name": "波多見",
    "lon": 132.5461388,
    "lat": 34.1757777
  },
  {
    "row": 121,
    "city": "呉市",
    "name": "天応",
    "lon": 132.5157777,
    "lat": 34.2875555
  },
  {
    "row": 122,
    "city": "呉市",
    "name": "警固屋",
    "lon": 132.5466666,
    "lat": 34.2
  },
  {
    "row": 123,
    "city": "呉市",
    "name": "呉(気)",
    "lon": 132.55,
    "lat": 34.24
  },
  {
    "row": 124,
    "city": "呉市",
    "name": "焼山",
    "lon": 132.55375,
    "lat": 34.2981388
  },
  {
    "row": 125,
    "city": "呉市",
    "name": "呉支所",
    "lon": 132.5561111,
    "lat": 34.2469444
  },
  {
    "row": 126,
    "city": "呉市",
    "name": "呉",
    "lon": 132.55,
    "lat": 34.24
  },
  {
    "row": 127,
    "city": "呉市",
    "name": "広",
    "lon": 132.6293055,
    "lat": 34.2466944
  },
  {
    "row": 128,
    "city": "呉市",
    "name": "小坪",
    "lon": 132.6341388,
    "lat": 34.2079166
  },
  {
    "row": 129,
    "city": "呉市",
    "name": "郷原",
    "lon": 132.63475,
    "lat": 34.3001944
  },
  {
    "row": 130,
    "city": "呉市",
    "name": "仁方",
    "lon": 132.6531666,
    "lat": 34.2226666
  },
  {
    "row": 131,
    "city": "呉市",
    "name": "下蒲刈",
    "lon": 132.6777222,
    "lat": 34.1930833
  },
  {
    "row": 132,
    "city": "呉市",
    "name": "川尻",
    "lon": 132.6833333,
    "lat": 34.241
  },
  {
    "row": 133,
    "city": "呉市",
    "name": "野呂川ダム",
    "lon": 132.7098889,
    "lat": 34.2891111
  },
  {
    "row": 134,
    "city": "呉市",
    "name": "内海",
    "lon": 132.7408888,
    "lat": 34.2818333
  },
  {
    "row": 135,
    "city": "呉市",
    "name": "田戸",
    "lon": 132.7249444,
    "lat": 34.1975833
  },
  {
    "row": 136,
    "city": "呉市",
    "name": "蒲刈町",
    "lon": 132.7325,
    "lat": 34.1972222
  },
  {
    "row": 137,
    "city": "呉市",
    "name": "呉市蒲刈(気)",
    "lon": 132.7483333,
    "lat": 34.165
  },
  {
    "row": 138,
    "city": "呉市",
    "name": "蒲刈大浦",
    "lon": 132.7491111,
    "lat": 34.1778333
  },
  {
    "row": 139,
    "city": "呉市",
    "name": "斎島",
    "lon": 132.7933055,
    "lat": 34.1190277
  },
  {
    "row": 140,
    "city": "呉市",
    "name": "豊島",
    "lon": 132.7965,
    "lat": 34.1746111
  },
  {
    "row": 141,
    "city": "呉市",
    "name": "大長",
    "lon": 132.8549444,
    "lat": 34.1858611
  },
  {
    "row": 142,
    "city": "安芸太田町",
    "name": "横川",
    "lon": 132.1558333,
    "lat": 34.5933333
  },
  {
    "row": 143,
    "city": "安芸太田町",
    "name": "内黒山(気)",
    "lon": 132.1766666,
    "lat": 34.5966666
  },
  {
    "row": 144,
    "city": "安芸太田町",
    "name": "内黒",
    "lon": 132.19,
    "lat": 34.5955555
  },
  {
    "row": 145,
    "city": "安芸太田町",
    "name": "布原",
    "lon": 132.1968888,
    "lat": 34.5361666
  },
  {
    "row": 146,
    "city": "安芸太田町",
    "name": "田吹",
    "lon": 132.2033333,
    "lat": 34.5413888
  },
  {
    "row": 147,
    "city": "安芸太田町",
    "name": "深入",
    "lon": 132.2072222,
    "lat": 34.6377777
  },
  {
    "row": 148,
    "city": "安芸太田町",
    "name": "松原(国)",
    "lon": 132.27,
    "lat": 34.6544444
  },
  {
    "row": 149,
    "city": "安芸太田町",
    "name": "松原",
    "lon": 132.27,
    "lat": 34.6544444
  },
  {
    "row": 150,
    "city": "安芸太田町",
    "name": "安芸太田町役場",
    "lon": 132.2213888,
    "lat": 34.5769444
  },
  {
    "row": 151,
    "city": "安芸太田町",
    "name": "筒賀(国)",
    "lon": 132.2475,
    "lat": 34.5580556
  },
  {
    "row": 152,
    "city": "安芸太田町",
    "name": "寺領",
    "lon": 132.2675,
    "lat": 34.6058333
  },
  {
    "row": 153,
    "city": "安芸太田町",
    "name": "杉ノ泊",
    "lon": 132.27425,
    "lat": 34.6159722
  },
  {
    "row": 154,
    "city": "安芸太田町",
    "name": "江河内",
    "lon": 132.2891666,
    "lat": 34.5905
  },
  {
    "row": 155,
    "city": "安芸太田町",
    "name": "中ノ原",
    "lon": 132.3041388,
    "lat": 34.5627777
  },
  {
    "row": 156,
    "city": "安芸太田町",
    "name": "猪山",
    "lon": 132.3100555,
    "lat": 34.6619444
  },
  {
    "row": 157,
    "city": "安芸太田町",
    "name": "温井ダム(国)",
    "lon": 132.3033333,
    "lat": 34.635
  },
  {
    "row": 158,
    "city": "安芸太田町",
    "name": "加計(国)",
    "lon": 132.32,
    "lat": 34.61
  },
  {
    "row": 159,
    "city": "安芸太田町",
    "name": "加計(気)",
    "lon": 132.32,
    "lat": 34.61
  },
  {
    "row": 160,
    "city": "安芸太田町",
    "name": "安芸太田支所",
    "lon": 132.3272222,
    "lat": 34.6119444
  },
  {
    "row": 161,
    "city": "安芸太田町",
    "name": "水谷",
    "lon": 132.3536666,
    "lat": 34.61225
  },
  {
    "row": 162,
    "city": "安芸太田町",
    "name": "黒峠",
    "lon": 132.36625,
    "lat": 34.5692777
  },
  {
    "row": 163,
    "city": "北広島町",
    "name": "八幡(気)",
    "lon": 132.1733333,
    "lat": 34.7083333
  },
  {
    "row": 164,
    "city": "北広島町",
    "name": "二川",
    "lon": 132.1970833,
    "lat": 34.7177777
  },
  {
    "row": 165,
    "city": "北広島町",
    "name": "雄鹿原(国)",
    "lon": 132.2425,
    "lat": 34.7175
  },
  {
    "row": 166,
    "city": "北広島町",
    "name": "上奥原(国)",
    "lon": 132.2702778,
    "lat": 34.7636111
  },
  {
    "row": 167,
    "city": "北広島町",
    "name": "芸北",
    "lon": 132.28,
    "lat": 34.7566667
  },
  {
    "row": 168,
    "city": "北広島町",
    "name": "川小田",
    "lon": 132.2861388,
    "lat": 34.7325
  },
  {
    "row": 169,
    "city": "北広島町",
    "name": "王泊(気)",
    "lon": 132.3116666,
    "lat": 34.6983333
  },
  {
    "row": 170,
    "city": "北広島町",
    "name": "王泊(国)",
    "lon": 132.3116666,
    "lat": 34.6983333
  },
  {
    "row": 171,
    "city": "北広島町",
    "name": "大暮(国)",
    "lon": 132.3308333,
    "lat": 34.7516667
  },
  {
    "row": 172,
    "city": "北広島町",
    "name": "高野",
    "lon": 132.3778611,
    "lat": 34.7585833
  },
  {
    "row": 173,
    "city": "北広島町",
    "name": "溝口(国)",
    "lon": 132.3819444,
    "lat": 34.705
  },
  {
    "row": 174,
    "city": "北広島町",
    "name": "七曲(国)",
    "lon": 132.3994444,
    "lat": 34.615
  },
  {
    "row": 175,
    "city": "北広島町",
    "name": "中原",
    "lon": 132.4200555,
    "lat": 34.6810277
  },
  {
    "row": 176,
    "city": "北広島町",
    "name": "吉木",
    "lon": 132.4337777,
    "lat": 34.62675
  },
  {
    "row": 177,
    "city": "北広島町",
    "name": "志路原(国)",
    "lon": 132.4433333,
    "lat": 34.7155556
  },
  {
    "row": 178,
    "city": "北広島町",
    "name": "都志見(気)",
    "lon": 132.4433333,
    "lat": 34.6466666
  },
  {
    "row": 179,
    "city": "北広島町",
    "name": "大塚",
    "lon": 132.4464166,
    "lat": 34.7801944
  },
  {
    "row": 180,
    "city": "北広島町",
    "name": "大朝(気)",
    "lon": 132.4633333,
    "lat": 34.7683333
  },
  {
    "row": 181,
    "city": "北広島町",
    "name": "大朝(国)",
    "lon": 132.4633333,
    "lat": 34.7683333
  },
  {
    "row": 182,
    "city": "北広島町",
    "name": "本地(国)",
    "lon": 132.5058333,
    "lat": 34.6422222
  },
  {
    "row": 183,
    "city": "北広島町",
    "name": "新都",
    "lon": 132.5071666,
    "lat": 34.6569166
  },
  {
    "row": 184,
    "city": "北広島町",
    "name": "川戸",
    "lon": 132.5166666,
    "lat": 34.7325277
  },
  {
    "row": 185,
    "city": "北広島町",
    "name": "藤原(国)",
    "lon": 132.5405556,
    "lat": 34.7375
  },
  {
    "row": 186,
    "city": "安芸高田市",
    "name": "八千代町",
    "lon": 132.6063889,
    "lat": 34.6205556
  },
  {
    "row": 187,
    "city": "安芸高田市",
    "name": "土師(国)",
    "lon": 132.6222222,
    "lat": 34.6441667
  },
  {
    "row": 188,
    "city": "安芸高田市",
    "name": "桑田",
    "lon": 132.6093611,
    "lat": 34.7580277
  },
  {
    "row": 189,
    "city": "安芸高田市",
    "name": "美土里町",
    "lon": 132.6269444,
    "lat": 34.7261111
  },
  {
    "row": 190,
    "city": "安芸高田市",
    "name": "美土里(国)",
    "lon": 132.655,
    "lat": 34.7216666
  },
  {
    "row": 191,
    "city": "安芸高田市",
    "name": "美土里(気)",
    "lon": 132.655,
    "lat": 34.7216666
  },
  {
    "row": 192,
    "city": "安芸高田市",
    "name": "多治比",
    "lon": 132.64725,
    "lat": 34.6810277
  },
  {
    "row": 193,
    "city": "安芸高田市",
    "name": "吉田町",
    "lon": 132.7116667,
    "lat": 34.6680556
  },
  {
    "row": 194,
    "city": "安芸高田市",
    "name": "吉田(国)",
    "lon": 132.7147222,
    "lat": 34.6652778
  },
  {
    "row": 195,
    "city": "安芸高田市",
    "name": "川根",
    "lon": 132.6501666,
    "lat": 34.8231944
  },
  {
    "row": 196,
    "city": "安芸高田市",
    "name": "佐々部",
    "lon": 132.7268611,
    "lat": 34.7850555
  },
  {
    "row": 197,
    "city": "安芸高田市",
    "name": "高宮(国)",
    "lon": 132.7444444,
    "lat": 34.7816667
  },
  {
    "row": 198,
    "city": "安芸高田市",
    "name": "向原坂",
    "lon": 132.7376944,
    "lat": 34.6093055
  },
  {
    "row": 199,
    "city": "安芸高田市",
    "name": "向原(国)",
    "lon": 132.7616667,
    "lat": 34.6075
  },
  {
    "row": 200,
    "city": "安芸高田市",
    "name": "甲田(気)",
    "lon": 132.76,
    "lat": 34.695
  },
  {
    "row": 201,
    "city": "安芸高田市",
    "name": "下甲立",
    "lon": 132.7683611,
    "lat": 34.7123333
  },
  {
    "row": 202,
    "city": "東広島市",
    "name": "志和(気)",
    "lon": 132.66,
    "lat": 34.4983333
  },
  {
    "row": 203,
    "city": "東広島市",
    "name": "志和東",
    "lon": 132.6769722,
    "lat": 34.4880833
  },
  {
    "row": 204,
    "city": "東広島市",
    "name": "吉川",
    "lon": 132.6766667,
    "lat": 34.3969444
  },
  {
    "row": 205,
    "city": "東広島市",
    "name": "東広島(気)",
    "lon": 132.7,
    "lat": 34.4166666
  },
  {
    "row": 206,
    "city": "東広島市",
    "name": "篠",
    "lon": 132.7244444,
    "lat": 34.4761111
  },
  {
    "row": 207,
    "city": "東広島市",
    "name": "郷曽",
    "lon": 132.7209444,
    "lat": 34.3822777
  },
  {
    "row": 208,
    "city": "東広島市",
    "name": "東広島支所",
    "lon": 132.7436111,
    "lat": 34.4252778
  },
  {
    "row": 209,
    "city": "東広島市",
    "name": "下三永",
    "lon": 132.7688889,
    "lat": 34.3969444
  },
  {
    "row": 210,
    "city": "東広島市",
    "name": "黒瀬町",
    "lon": 132.6766667,
    "lat": 34.3244444
  },
  {
    "row": 211,
    "city": "東広島市",
    "name": "造賀",
    "lon": 132.7622222,
    "lat": 34.4852778
  },
  {
    "row": 212,
    "city": "東広島市",
    "name": "高美が丘",
    "lon": 132.7924166,
    "lat": 34.4573888
  },
  {
    "row": 213,
    "city": "東広島市",
    "name": "福富ダム",
    "lon": 132.7772222,
    "lat": 34.5302778
  },
  {
    "row": 214,
    "city": "東広島市",
    "name": "久芳",
    "lon": 132.77875,
    "lat": 34.5358333
  },
  {
    "row": 215,
    "city": "東広島市",
    "name": "岩伏",
    "lon": 132.8157777,
    "lat": 34.3578611
  },
  {
    "row": 216,
    "city": "東広島市",
    "name": "三津",
    "lon": 132.8175,
    "lat": 34.3291667
  },
  {
    "row": 217,
    "city": "東広島市",
    "name": "乃美",
    "lon": 132.8277778,
    "lat": 34.5680556
  },
  {
    "row": 218,
    "city": "東広島市",
    "name": "安宿(気)",
    "lon": 132.8341666,
    "lat": 34.5666666
  },
  {
    "row": 219,
    "city": "東広島市",
    "name": "吉原",
    "lon": 132.8529722,
    "lat": 34.6029166
  },
  {
    "row": 220,
    "city": "東広島市",
    "name": "宇山",
    "lon": 132.8183333,
    "lat": 34.5161111
  },
  {
    "row": 221,
    "city": "東広島市",
    "name": "入野",
    "lon": 132.8688888,
    "lat": 34.4225
  },
  {
    "row": 222,
    "city": "東広島市",
    "name": "日本ヶ峰",
    "lon": 132.8763888,
    "lat": 34.4858333
  },
  {
    "row": 223,
    "city": "東広島市",
    "name": "河内支所",
    "lon": 132.8883333,
    "lat": 34.4722222
  },
  {
    "row": 224,
    "city": "東広島市",
    "name": "河内",
    "lon": 132.8919444,
    "lat": 34.4719444
  },
  {
    "row": 225,
    "city": "東広島市",
    "name": "椋梨ダム",
    "lon": 132.89325,
    "lat": 34.5025278
  },
  {
    "row": 226,
    "city": "竹原市",
    "name": "田万里(西堀坂)",
    "lon": 132.8272222,
    "lat": 34.4097222
  },
  {
    "row": 227,
    "city": "竹原市",
    "name": "田万里",
    "lon": 132.8272222,
    "lat": 34.4097222
  },
  {
    "row": 228,
    "city": "竹原市",
    "name": "仁賀",
    "lon": 132.8383333,
    "lat": 34.3666666
  },
  {
    "row": 229,
    "city": "竹原市",
    "name": "仁賀ダム",
    "lon": 132.8427778,
    "lat": 34.3769444
  },
  {
    "row": 230,
    "city": "竹原市",
    "name": "吉名",
    "lon": 132.8708333,
    "lat": 34.3163888
  },
  {
    "row": 231,
    "city": "竹原市",
    "name": "西野",
    "lon": 132.8833333,
    "lat": 34.3986111
  },
  {
    "row": 232,
    "city": "竹原市",
    "name": "朝日山",
    "lon": 132.8902777,
    "lat": 34.3502777
  },
  {
    "row": 233,
    "city": "竹原市",
    "name": "新庄",
    "lon": 132.8905555,
    "lat": 34.3842222
  },
  {
    "row": 234,
    "city": "竹原市",
    "name": "竹原",
    "lon": 132.982163,
    "lat": 34.331583
  },
  {
    "row": 235,
    "city": "竹原市",
    "name": "竹原市役所",
    "lon": 132.9072222,
    "lat": 34.3419444
  },
  {
    "row": 236,
    "city": "竹原市",
    "name": "小梨",
    "lon": 132.9194444,
    "lat": 34.3705555
  },
  {
    "row": 237,
    "city": "竹原市",
    "name": "小梨(北谷平)",
    "lon": 132.9194444,
    "lat": 34.3705555
  },
  {
    "row": 238,
    "city": "竹原市",
    "name": "忠海",
    "lon": 132.976627,
    "lat": 34.336309
  },
  {
    "row": 239,
    "city": "竹原市",
    "name": "竹原(気)",
    "lon": 132.982163,
    "lat": 34.331583
  },
  {
    "row": 240,
    "city": "大崎上島町",
    "name": "明石",
    "lon": 132.8844166,
    "lat": 34.2099722
  },
  {
    "row": 241,
    "city": "大崎上島町",
    "name": "大崎町",
    "lon": 132.8894444,
    "lat": 34.2419444
  },
  {
    "row": 242,
    "city": "大崎上島町",
    "name": "上組",
    "lon": 132.9163055,
    "lat": 34.2576388
  },
  {
    "row": 243,
    "city": "三次市",
    "name": "大津(国)",
    "lon": 132.6780556,
    "lat": 34.8880556
  },
  {
    "row": 244,
    "city": "三次市",
    "name": "森山",
    "lon": 132.6988888,
    "lat": 34.9255555
  },
  {
    "row": 245,
    "city": "三次市",
    "name": "作木支所",
    "lon": 132.7188888,
    "lat": 34.865
  },
  {
    "row": 246,
    "city": "三次市",
    "name": "作木西野",
    "lon": 132.7383055,
    "lat": 34.9000833
  },
  {
    "row": 247,
    "city": "三次市",
    "name": "大山",
    "lon": 132.7436111,
    "lat": 34.8183333
  },
  {
    "row": 248,
    "city": "三次市",
    "name": "横谷",
    "lon": 132.7560555,
    "lat": 34.9233611
  },
  {
    "row": 249,
    "city": "三次市",
    "name": "上作木",
    "lon": 132.7569444,
    "lat": 34.8941666
  },
  {
    "row": 250,
    "city": "三次市",
    "name": "布野(国)",
    "lon": 132.78,
    "lat": 34.8855556
  },
  {
    "row": 251,
    "city": "三次市",
    "name": "川地",
    "lon": 132.7966666,
    "lat": 34.7341666
  },
  {
    "row": 252,
    "city": "三次市",
    "name": "ゆめランド",
    "lon": 132.7976944,
    "lat": 34.8550277
  },
  {
    "row": 253,
    "city": "三次市",
    "name": "日下",
    "lon": 132.8011111,
    "lat": 34.8175
  },
  {
    "row": 254,
    "city": "三次市",
    "name": "青河",
    "lon": 132.8196111,
    "lat": 34.7614166
  },
  {
    "row": 255,
    "city": "三次市",
    "name": "櫃田",
    "lon": 132.8269166,
    "lat": 34.95
  },
  {
    "row": 256,
    "city": "三次市",
    "name": "君田(気)",
    "lon": 132.83,
    "lat": 34.9283333
  },
  {
    "row": 257,
    "city": "三次市",
    "name": "板木(国)",
    "lon": 132.8322222,
    "lat": 34.6933333
  },
  {
    "row": 258,
    "city": "三次市",
    "name": "藤根原",
    "lon": 132.8427777,
    "lat": 34.7202777
  },
  {
    "row": 259,
    "city": "三次市",
    "name": "三次(国)",
    "lon": 132.85,
    "lat": 34.8116666
  },
  {
    "row": 260,
    "city": "三次市",
    "name": "三次(気)",
    "lon": 132.85,
    "lat": 34.8116666
  },
  {
    "row": 261,
    "city": "三次市",
    "name": "三次市役所",
    "lon": 132.8519444,
    "lat": 34.8052777
  },
  {
    "row": 262,
    "city": "三次市",
    "name": "東入君",
    "lon": 132.8581111,
    "lat": 34.8771388
  },
  {
    "row": 263,
    "city": "三次市",
    "name": "北部建設",
    "lon": 132.8594444,
    "lat": 34.8047222
  },
  {
    "row": 264,
    "city": "三次市",
    "name": "酒屋",
    "lon": 132.86,
    "lat": 34.7627777
  },
  {
    "row": 265,
    "city": "三次市",
    "name": "上壱",
    "lon": 132.8622222,
    "lat": 34.6508333
  },
  {
    "row": 266,
    "city": "三次市",
    "name": "西河内",
    "lon": 132.8629583,
    "lat": 34.8459916
  },
  {
    "row": 267,
    "city": "三次市",
    "name": "南畑敷",
    "lon": 132.8751944,
    "lat": 34.8067222
  },
  {
    "row": 268,
    "city": "三次市",
    "name": "畠敷",
    "lon": 132.8922222,
    "lat": 34.8136111
  },
  {
    "row": 269,
    "city": "三次市",
    "name": "三次石原",
    "lon": 132.8997222,
    "lat": 34.7255556
  },
  {
    "row": 270,
    "city": "三次市",
    "name": "上田",
    "lon": 132.9111111,
    "lat": 34.6941666
  },
  {
    "row": 271,
    "city": "三次市",
    "name": "田幸",
    "lon": 132.9155555,
    "lat": 34.7530555
  },
  {
    "row": 272,
    "city": "三次市",
    "name": "敷地",
    "lon": 132.9655,
    "lat": 34.7473888
  },
  {
    "row": 273,
    "city": "三次市",
    "name": "仁賀",
    "lon": 132.9776666,
    "lat": 34.7913055
  },
  {
    "row": 274,
    "city": "三次市",
    "name": "灰塚ダム(国)",
    "lon": 132.9866667,
    "lat": 34.7858333
  },
  {
    "row": 275,
    "city": "三次市",
    "name": "吉舎(国)",
    "lon": 132.9916667,
    "lat": 34.7219444
  },
  {
    "row": 276,
    "city": "三次市",
    "name": "上安田(国)",
    "lon": 133.0336111,
    "lat": 34.7466667
  },
  {
    "row": 277,
    "city": "三次市",
    "name": "西野(国)",
    "lon": 133.0733333,
    "lat": 34.7086111
  },
  {
    "row": 278,
    "city": "三次市",
    "name": "甲奴本郷",
    "lon": 133.0883333,
    "lat": 34.7009722
  },
  {
    "row": 279,
    "city": "庄原市",
    "name": "高暮(国)",
    "lon": 132.8315555,
    "lat": 35.0175833
  },
  {
    "row": 280,
    "city": "庄原市",
    "name": "高暮",
    "lon": 132.8315555,
    "lat": 35.0175833
  },
  {
    "row": 281,
    "city": "庄原市",
    "name": "竹地谷",
    "lon": 132.8787222,
    "lat": 34.9405
  },
  {
    "row": 282,
    "city": "庄原市",
    "name": "大月(国)",
    "lon": 132.8833333,
    "lat": 34.915
  },
  {
    "row": 283,
    "city": "庄原市",
    "name": "高野(気)",
    "lon": 132.9016666,
    "lat": 35.0333333
  },
  {
    "row": 284,
    "city": "庄原市",
    "name": "新市",
    "lon": 132.9148888,
    "lat": 35.0364722
  },
  {
    "row": 285,
    "city": "庄原市",
    "name": "永田",
    "lon": 132.9268888,
    "lat": 34.8940833
  },
  {
    "row": 286,
    "city": "庄原市",
    "name": "古頃",
    "lon": 132.9472222,
    "lat": 34.9761111
  },
  {
    "row": 287,
    "city": "庄原市",
    "name": "比和(国)",
    "lon": 132.9830556,
    "lat": 34.9730556
  },
  {
    "row": 288,
    "city": "庄原市",
    "name": "比和",
    "lon": 132.9830556,
    "lat": 34.9730556
  },
  {
    "row": 289,
    "city": "庄原市",
    "name": "比和支所",
    "lon": 132.9861111,
    "lat": 34.9833333
  },
  {
    "row": 290,
    "city": "庄原市",
    "name": "庄原(国)",
    "lon": 133.0233333,
    "lat": 34.86
  },
  {
    "row": 291,
    "city": "庄原市",
    "name": "戸郷川",
    "lon": 133.0141666,
    "lat": 34.85
  },
  {
    "row": 292,
    "city": "庄原市",
    "name": "庄原支所",
    "lon": 133.0186111,
    "lat": 34.8594444
  },
  {
    "row": 293,
    "city": "庄原市",
    "name": "庄原(気)",
    "lon": 133.0233333,
    "lat": 34.86
  },
  {
    "row": 294,
    "city": "庄原市",
    "name": "吾妻山",
    "lon": 133.0286111,
    "lat": 35.0594444
  },
  {
    "row": 295,
    "city": "庄原市",
    "name": "三河内",
    "lon": 133.0361111,
    "lat": 34.9658333
  },
  {
    "row": 296,
    "city": "庄原市",
    "name": "川北",
    "lon": 133.0408055,
    "lat": 34.9292222
  },
  {
    "row": 297,
    "city": "庄原市",
    "name": "熊野",
    "lon": 133.0558333,
    "lat": 35.0327777
  },
  {
    "row": 298,
    "city": "庄原市",
    "name": "大屋",
    "lon": 133.0583333,
    "lat": 34.9677777
  },
  {
    "row": 299,
    "city": "庄原市",
    "name": "総領(国)",
    "lon": 133.0666667,
    "lat": 34.7830556
  },
  {
    "row": 300,
    "city": "庄原市",
    "name": "県民の森",
    "lon": 133.0822222,
    "lat": 35.0477777
  },
  {
    "row": 301,
    "city": "庄原市",
    "name": "大戸",
    "lon": 133.0830555,
    "lat": 34.9269444
  },
  {
    "row": 302,
    "city": "庄原市",
    "name": "中領家",
    "lon": 133.1066666,
    "lat": 34.7943055
  },
  {
    "row": 303,
    "city": "庄原市",
    "name": "油木(国)",
    "lon": 133.1102778,
    "lat": 35.0463889
  },
  {
    "row": 304,
    "city": "庄原市",
    "name": "黒目(国)",
    "lon": 133.1161111,
    "lat": 34.7386111
  },
  {
    "row": 305,
    "city": "庄原市",
    "name": "西城支所",
    "lon": 133.1177777,
    "lat": 34.94
  },
  {
    "row": 306,
    "city": "庄原市",
    "name": "西城(国)",
    "lon": 133.1197222,
    "lat": 34.9441667
  },
  {
    "row": 307,
    "city": "庄原市",
    "name": "西城中野",
    "lon": 133.1199722,
    "lat": 34.9460555
  },
  {
    "row": 308,
    "city": "庄原市",
    "name": "庄原ダム",
    "lon": 133.0744444,
    "lat": 34.9025
  },
  {
    "row": 309,
    "city": "庄原市",
    "name": "上領家(国)",
    "lon": 133.1205556,
    "lat": 34.8025
  },
  {
    "row": 310,
    "city": "庄原市",
    "name": "本村町",
    "lon": 133.1206388,
    "lat": 34.8765277
  },
  {
    "row": 311,
    "city": "庄原市",
    "name": "八鳥",
    "lon": 133.1447222,
    "lat": 34.9661111
  },
  {
    "row": 312,
    "city": "庄原市",
    "name": "小鳥原",
    "lon": 133.1566666,
    "lat": 35.0375
  },
  {
    "row": 313,
    "city": "庄原市",
    "name": "道後山(気)",
    "lon": 133.1883333,
    "lat": 35.0566666
  },
  {
    "row": 314,
    "city": "庄原市",
    "name": "雨連",
    "lon": 133.1491666,
    "lat": 34.8680555
  },
  {
    "row": 315,
    "city": "庄原市",
    "name": "森",
    "lon": 133.2008333,
    "lat": 34.9522222
  },
  {
    "row": 316,
    "city": "庄原市",
    "name": "小奴可",
    "lon": 133.2113888,
    "lat": 34.9905555
  },
  {
    "row": 317,
    "city": "庄原市",
    "name": "道後山",
    "lon": 133.1883333,
    "lat": 35.0566666
  },
  {
    "row": 318,
    "city": "庄原市",
    "name": "持丸",
    "lon": 133.2383333,
    "lat": 35.0461111
  },
  {
    "row": 319,
    "city": "庄原市",
    "name": "三坂",
    "lon": 133.2411111,
    "lat": 34.8427777
  },
  {
    "row": 320,
    "city": "庄原市",
    "name": "所尾",
    "lon": 133.2577777,
    "lat": 34.9855555
  },
  {
    "row": 321,
    "city": "庄原市",
    "name": "東城(国)",
    "lon": 133.2766666,
    "lat": 34.895
  },
  {
    "row": 322,
    "city": "庄原市",
    "name": "東城(気)",
    "lon": 133.2766666,
    "lat": 34.895
  },
  {
    "row": 323,
    "city": "庄原市",
    "name": "川東",
    "lon": 133.2798055,
    "lat": 34.9006111
  },
  {
    "row": 324,
    "city": "庄原市",
    "name": "千鳥",
    "lon": 133.2813888,
    "lat": 35.0033333
  },
  {
    "row": 325,
    "city": "庄原市",
    "name": "小室",
    "lon": 133.2855555,
    "lat": 34.9472222
  },
  {
    "row": 326,
    "city": "三原市",
    "name": "本郷(気)",
    "lon": 132.9183333,
    "lat": 34.435
  },
  {
    "row": 327,
    "city": "三原市",
    "name": "本谷",
    "lon": 132.9183333,
    "lat": 34.4247222
  },
  {
    "row": 328,
    "city": "三原市",
    "name": "和木",
    "lon": 132.9223055,
    "lat": 34.5089166
  },
  {
    "row": 329,
    "city": "三原市",
    "name": "下徳良",
    "lon": 132.9514167,
    "lat": 34.5403333
  },
  {
    "row": 330,
    "city": "三原市",
    "name": "甲原",
    "lon": 132.9761111,
    "lat": 34.3694444
  },
  {
    "row": 331,
    "city": "三原市",
    "name": "菅川橋",
    "lon": 132.98,
    "lat": 34.4294444
  },
  {
    "row": 332,
    "city": "三原市",
    "name": "末光",
    "lon": 133.0278888,
    "lat": 34.3774444
  },
  {
    "row": 333,
    "city": "三原市",
    "name": "江木",
    "lon": 133.0311111,
    "lat": 34.5433333
  },
  {
    "row": 334,
    "city": "三原市",
    "name": "西野",
    "lon": 133.059,
    "lat": 34.4057777
  },
  {
    "row": 335,
    "city": "三原市",
    "name": "吉田",
    "lon": 133.0716666,
    "lat": 34.5481944
  },
  {
    "row": 336,
    "city": "三原市",
    "name": "三原支所",
    "lon": 133.0775,
    "lat": 34.3936111
  },
  {
    "row": 337,
    "city": "三原市",
    "name": "須波",
    "lon": 133.1133333,
    "lat": 34.3525
  },
  {
    "row": 338,
    "city": "三原市",
    "name": "野間川ダム",
    "lon": 133.0683333,
    "lat": 34.5294444
  },
  {
    "row": 339,
    "city": "世羅町",
    "name": "黒川",
    "lon": 132.8981388,
    "lat": 34.6435
  },
  {
    "row": 340,
    "city": "世羅町",
    "name": "津名(国)",
    "lon": 132.9169444,
    "lat": 34.6613889
  },
  {
    "row": 341,
    "city": "世羅町",
    "name": "賀茂",
    "lon": 132.9888889,
    "lat": 34.5741667
  },
  {
    "row": 342,
    "city": "世羅町",
    "name": "賀茂(国)",
    "lon": 132.9888889,
    "lat": 34.5741667
  },
  {
    "row": 343,
    "city": "世羅町",
    "name": "安田",
    "lon": 133.0072222,
    "lat": 34.6383333
  },
  {
    "row": 344,
    "city": "世羅町",
    "name": "世羅(気)",
    "lon": 133.05,
    "lat": 34.5833333
  },
  {
    "row": 345,
    "city": "世羅町",
    "name": "甲山",
    "lon": 133.0580556,
    "lat": 34.5847222
  },
  {
    "row": 346,
    "city": "世羅町",
    "name": "別迫",
    "lon": 133.0698888,
    "lat": 34.6256388
  },
  {
    "row": 347,
    "city": "世羅町",
    "name": "山田川ダム",
    "lon": 133.0725,
    "lat": 34.6366667
  },
  {
    "row": 348,
    "city": "世羅町",
    "name": "三川",
    "lon": 133.1055556,
    "lat": 34.615
  },
  {
    "row": 349,
    "city": "世羅町",
    "name": "宇津戸(国)",
    "lon": 133.1136111,
    "lat": 34.5591667
  },
  {
    "row": 350,
    "city": "世羅町",
    "name": "八田原(国)",
    "lon": 133.1458333,
    "lat": 34.5905556
  },
  {
    "row": 351,
    "city": "尾道市",
    "name": "御調",
    "lon": 133.1152778,
    "lat": 34.495
  },
  {
    "row": 352,
    "city": "尾道市",
    "name": "御調(国)",
    "lon": 133.1152778,
    "lat": 34.495
  },
  {
    "row": 353,
    "city": "尾道市",
    "name": "高尾",
    "lon": 133.1371111,
    "lat": 34.5179444
  },
  {
    "row": 354,
    "city": "尾道市",
    "name": "木ノ庄",
    "lon": 133.152222222222,
    "lat": 34.4769444444444
  },
  {
    "row": 355,
    "city": "尾道市",
    "name": "美之郷",
    "lon": 133.1580556,
    "lat": 34.4477778
  },
  {
    "row": 356,
    "city": "尾道市",
    "name": "美ノ郷",
    "lon": 133.191111111111,
    "lat": 34.4561111111111
  },
  {
    "row": 357,
    "city": "尾道市",
    "name": "栗原",
    "lon": 133.177777777778,
    "lat": 34.4247222222222
  },
  {
    "row": 358,
    "city": "尾道市",
    "name": "梶山田",
    "lon": 133.2141667,
    "lat": 34.4952778
  },
  {
    "row": 359,
    "city": "尾道市",
    "name": "原田",
    "lon": 133.200833333333,
    "lat": 34.4880555555556
  },
  {
    "row": 360,
    "city": "尾道市",
    "name": "尾道市役所",
    "lon": 133.20568058,
    "lat": 34.40914756
  },
  {
    "row": 361,
    "city": "尾道市",
    "name": "浦崎",
    "lon": 133.264722222222,
    "lat": 34.4002777777778
  },
  {
    "row": 362,
    "city": "尾道市",
    "name": "有井",
    "lon": 133.1833333,
    "lat": 34.3816111
  },
  {
    "row": 363,
    "city": "尾道市",
    "name": "因島",
    "lon": 133.1694444,
    "lat": 34.2944444
  },
  {
    "row": 364,
    "city": "尾道市",
    "name": "外浦",
    "lon": 133.1868333,
    "lat": 34.3307222
  },
  {
    "row": 365,
    "city": "尾道市",
    "name": "林",
    "lon": 133.1054722,
    "lat": 34.3049722
  },
  {
    "row": 366,
    "city": "尾道市",
    "name": "生口島(気)",
    "lon": 133.1233333,
    "lat": 34.2783333
  },
  {
    "row": 367,
    "city": "府中市",
    "name": "上下(気)",
    "lon": 133.1166666,
    "lat": 34.6933333
  },
  {
    "row": 368,
    "city": "府中市",
    "name": "二森",
    "lon": 133.1371111,
    "lat": 34.7026389
  },
  {
    "row": 369,
    "city": "府中市",
    "name": "古城(国)",
    "lon": 133.1455556,
    "lat": 34.65
  },
  {
    "row": 370,
    "city": "府中市",
    "name": "羽高",
    "lon": 133.1663055,
    "lat": 34.5605277
  },
  {
    "row": 371,
    "city": "府中市",
    "name": "府中(気)",
    "lon": 133.2316666,
    "lat": 34.5616666
  },
  {
    "row": 372,
    "city": "府中市",
    "name": "府中(国)",
    "lon": 133.2316666,
    "lat": 34.5616666
  },
  {
    "row": 373,
    "city": "福山市",
    "name": "上安井",
    "lon": 133.2686111,
    "lat": 34.5880556
  },
  {
    "row": 374,
    "city": "福山市",
    "name": "大谷山(国)",
    "lon": 133.2752778,
    "lat": 34.5008333
  },
  {
    "row": 375,
    "city": "福山市",
    "name": "駅家(国)",
    "lon": 133.3119444,
    "lat": 34.6002778
  },
  {
    "row": 376,
    "city": "福山市",
    "name": "七社",
    "lon": 133.3436111,
    "lat": 34.5280556
  },
  {
    "row": 377,
    "city": "福山市",
    "name": "古市",
    "lon": 133.3879166,
    "lat": 34.5465555
  },
  {
    "row": 378,
    "city": "福山市",
    "name": "神辺(国)",
    "lon": 133.4183333,
    "lat": 34.5738889
  },
  {
    "row": 379,
    "city": "福山市",
    "name": "四川",
    "lon": 133.3380556,
    "lat": 34.5997222
  },
  {
    "row": 380,
    "city": "福山市",
    "name": "加茂",
    "lon": 133.3563889,
    "lat": 34.5886111
  },
  {
    "row": 381,
    "city": "福山市",
    "name": "福山(気)",
    "lon": 133.2466666,
    "lat": 34.4466666
  },
  {
    "row": 382,
    "city": "福山市",
    "name": "南松永",
    "lon": 133.2509166,
    "lat": 34.4298055
  },
  {
    "row": 383,
    "city": "福山市",
    "name": "大浦",
    "lon": 133.3070833,
    "lat": 34.3687777
  },
  {
    "row": 384,
    "city": "福山市",
    "name": "沼隈町",
    "lon": 133.3180556,
    "lat": 34.3902778
  },
  {
    "row": 385,
    "city": "福山市",
    "name": "瀬戸",
    "lon": 133.3333333,
    "lat": 34.4835
  },
  {
    "row": 386,
    "city": "福山市",
    "name": "山野",
    "lon": 133.3914722,
    "lat": 34.6540277
  },
  {
    "row": 387,
    "city": "福山市",
    "name": "東部建設",
    "lon": 133.3725,
    "lat": 34.4938889
  },
  {
    "row": 388,
    "city": "福山市",
    "name": "福山(国)",
    "lon": 133.2466666,
    "lat": 34.4466666
  },
  {
    "row": 389,
    "city": "福山市",
    "name": "箕島(国)",
    "lon": 133.4052778,
    "lat": 34.4297222
  },
  {
    "row": 390,
    "city": "福山市",
    "name": "田尻",
    "lon": 133.3743055,
    "lat": 34.4196666
  },
  {
    "row": 391,
    "city": "神石高原町",
    "name": "神石町",
    "lon": 133.1772222,
    "lat": 34.8002778
  },
  {
    "row": 392,
    "city": "神石高原町",
    "name": "川南",
    "lon": 133.2056944,
    "lat": 34.6741111
  },
  {
    "row": 393,
    "city": "神石高原町",
    "name": "高蓋(国)",
    "lon": 133.2133333,
    "lat": 34.7016666
  },
  {
    "row": 394,
    "city": "神石高原町",
    "name": "高蓋",
    "lon": 133.2133333,
    "lat": 34.7016666
  },
  {
    "row": 395,
    "city": "神石高原町",
    "name": "星居山",
    "lon": 133.2208333,
    "lat": 34.7441666
  },
  {
    "row": 396,
    "city": "神石高原町",
    "name": "五殿山",
    "lon": 133.2369444,
    "lat": 34.6636111
  },
  {
    "row": 397,
    "city": "神石高原町",
    "name": "神石高原町役場",
    "lon": 133.2477777,
    "lat": 34.7036111
  },
  {
    "row": 398,
    "city": "神石高原町",
    "name": "油木安田",
    "lon": 133.2756944,
    "lat": 34.7666666
  },
  {
    "row": 399,
    "city": "神石高原町",
    "name": "油木(気)",
    "lon": 133.2783333,
    "lat": 34.7633333
  },
  {
    "row": 400,
    "city": "神石高原町",
    "name": "井関",
    "lon": 133.2977222,
    "lat": 34.68
  },
  {
    "row": 401,
    "city": "神石高原町",
    "name": "坂瀬川",
    "lon": 133.3055555,
    "lat": 34.6605555
  },
  {
    "row": 402,
    "city": "神石高原町",
    "name": "時安",
    "lon": 133.3211111,
    "lat": 34.6925
  },
  {
    "row": 403,
    "city": "神石高原町",
    "name": "時安(国)",
    "lon": 133.3211111,
    "lat": 34.6925
  },
  {
    "row": 404,
    "city": "神石高原町",
    "name": "上豊松",
    "lon": 133.2977777,
    "lat": 34.7508333
  },
  {
    "row": 405,
    "city": "神石高原町",
    "name": "米見山",
    "lon": 133.3302777,
    "lat": 34.7763888
  },
  {
    "row": 406,
    "city": "神石高原町",
    "name": "下豊松",
    "lon": 133.3404722,
    "lat": 34.7750833
  },
  {
    "row": 407,
    "city": "神石高原町",
    "name": "笹尾",
    "lon": 133.3205555,
    "lat": 34.8077777
  },
  {
    "row": 408,
    "city": "神石高原町",
    "name": "有木",
    "lon": 133.3647222,
    "lat": 34.7972222
  }
]