[
  {
    "row": 4,
    "city": "大竹市",
    "name": "栗谷",
    "lon": 132.1575,
    "lat": 34.3086111111111
  },
  {
    "row": 5,
    "city": "大竹市",
    "name": "大竹市",
    "lon": 132.221944444444,
    "lat": 34.2380555555556
  },
  {
    "row": 6,
    "city": "大竹市",
    "name": "弥栄ダム(国)",
    "lon": 132.165277777778,
    "lat": 34.2355555555556
  },
  {
    "row": 7,
    "city": "大竹市",
    "name": "湯船(国)",
    "lon": 132.218611111111,
    "lat": 34.2530555555556
  },
  {
    "row": 8,
    "city": "大竹市",
    "name": "大竹(気)",
    "lon": 132.22,
    "lat": 34.2216666666667
  },
  {
    "row": 9,
    "city": "廿日市市",
    "name": "坊主山",
    "lon": 132.066666666667,
    "lat": 34.4966666666667
  },
  {
    "row": 10,
    "city": "廿日市市",
    "name": "頓原",
    "lon": 132.0875,
    "lat": 34.4519444444445
  },
  {
    "row": 11,
    "city": "廿日市市",
    "name": "十方山",
    "lon": 132.122222222222,
    "lat": 34.5408333333333
  },
  {
    "row": 12,
    "city": "廿日市市",
    "name": "吉和",
    "lon": 132.134166666667,
    "lat": 34.4825
  },
  {
    "row": 13,
    "city": "廿日市市",
    "name": "吉和支所",
    "lon": 132.14308856,
    "lat": 34.48473006
  },
  {
    "row": 14,
    "city": "廿日市市",
    "name": "もみのき",
    "lon": 132.183888888889,
    "lat": 34.4747222222222
  },
  {
    "row": 15,
    "city": "廿日市市",
    "name": "中道(国)",
    "lon": 132.085833333333,
    "lat": 34.3680555555556
  },
  {
    "row": 16,
    "city": "廿日市市",
    "name": "小瀬川ダム",
    "lon": 132.123888888889,
    "lat": 34.3088888888889
  },
  {
    "row": 17,
    "city": "廿日市市",
    "name": "浅原",
    "lon": 132.136944444444,
    "lat": 34.3433333333333
  },
  {
    "row": 18,
    "city": "廿日市市",
    "name": "栗栖",
    "lon": 132.139166666667,
    "lat": 34.375
  },
  {
    "row": 19,
    "city": "廿日市市",
    "name": "佐伯",
    "lon": 132.177777777778,
    "lat": 34.3675
  },
  {
    "row": 20,
    "city": "廿日市市",
    "name": "廿日市津田(気)",
    "lon": 132.19,
    "lat": 34.365
  },
  {
    "row": 21,
    "city": "廿日市市",
    "name": "津田(国)",
    "lon": 132.190833333333,
    "lat": 34.3711111111111
  },
  {
    "row": 22,
    "city": "廿日市市",
    "name": "奴メリ谷",
    "lon": 132.204722222222,
    "lat": 34.2958333333333
  },
  {
    "row": 23,
    "city": "廿日市市",
    "name": "馬の口",
    "lon": 132.235,
    "lat": 34.3022222222222
  },
  {
    "row": 24,
    "city": "廿日市市",
    "name": "八坂",
    "lon": 132.246666666667,
    "lat": 34.2683333333333
  },
  {
    "row": 25,
    "city": "廿日市市",
    "name": "矢草南",
    "lon": 132.261666666667,
    "lat": 34.3277777777778
  },
  {
    "row": 26,
    "city": "廿日市市",
    "name": "矢草(国)",
    "lon": 132.266666666667,
    "lat": 34.3344444444444
  },
  {
    "row": 27,
    "city": "廿日市市",
    "name": "矢草北",
    "lon": 132.27,
    "lat": 34.3341666666667
  },
  {
    "row": 28,
    "city": "廿日市市",
    "name": "大野",
    "lon": 132.275555555556,
    "lat": 34.2866666666667
  },
  {
    "row": 29,
    "city": "廿日市市",
    "name": "中山",
    "lon": 132.287222222222,
    "lat": 34.3211111111111
  },
  {
    "row": 30,
    "city": "廿日市市",
    "name": "友和",
    "lon": 132.226666666667,
    "lat": 34.3586111111111
  },
  {
    "row": 31,
    "city": "廿日市市",
    "name": "玖島",
    "lon": 132.25,
    "lat": 34.3911111111111
  },
  {
    "row": 32,
    "city": "廿日市市",
    "name": "楢原(国)",
    "lon": 132.25,
    "lat": 34.390556
  },
  {
    "row": 33,
    "city": "廿日市市",
    "name": "野貝原(国)",
    "lon": 132.276666666667,
    "lat": 34.3730555555556
  },
  {
    "row": 34,
    "city": "廿日市市",
    "name": "原",
    "lon": 132.305277777778,
    "lat": 34.37
  },
  {
    "row": 35,
    "city": "廿日市市",
    "name": "後畑",
    "lon": 132.306666666667,
    "lat": 34.4044444444444
  },
  {
    "row": 36,
    "city": "廿日市市",
    "name": "地御前(国)",
    "lon": 132.305277777778,
    "lat": 34.3375
  },
  {
    "row": 37,
    "city": "廿日市市",
    "name": "宮島町",
    "lon": 132.3125,
    "lat": 34.2961111111111
  },
  {
    "row": 38,
    "city": "廿日市市",
    "name": "廿日市支所",
    "lon": 132.343055555556,
    "lat": 34.3572222222222
  },
  {
    "row": 39,
    "city": "広島市中区",
    "name": "江波",
    "lon": 132.436111111111,
    "lat": 34.3730555555556
  },
  {
    "row": 40,
    "city": "広島市中区",
    "name": "広島(気)",
    "lon": 132.461666666667,
    "lat": 34.3983333333333
  },
  {
    "row": 41,
    "city": "広島市中区",
    "name": "広島(国)",
    "lon": 132.462222222222,
    "lat": 34.3969444444444
  },
  {
    "row": 42,
    "city": "広島市東区",
    "name": "牛田早稲田",
    "lon": 132.480833333333,
    "lat": 34.4186111111111
  },
  {
    "row": 43,
    "city": "広島市東区",
    "name": "中山新町",
    "lon": 132.5,
    "lat": 34.4208333333333
  },
  {
    "row": 44,
    "city": "広島市東区",
    "name": "温品(国)",
    "lon": 132.501666666667,
    "lat": 34.4375
  },
  {
    "row": 45,
    "city": "広島市東区",
    "name": "福木",
    "lon": 132.536111111111,
    "lat": 34.4455555555556
  },
  {
    "row": 46,
    "city": "広島市南区",
    "name": "西部建設",
    "lon": 132.468333333333,
    "lat": 34.3816666666667
  },
  {
    "row": 47,
    "city": "広島市南区",
    "name": "楠那",
    "lon": 132.486111111111,
    "lat": 34.3627777777778
  },
  {
    "row": 48,
    "city": "広島市西区",
    "name": "井口台",
    "lon": 132.381111111111,
    "lat": 34.3797222222222
  },
  {
    "row": 49,
    "city": "広島市西区",
    "name": "己斐",
    "lon": 132.425555555556,
    "lat": 34.4066666666667
  },
  {
    "row": 50,
    "city": "広島市安佐南区",
    "name": "吉山(国)",
    "lon": 132.331666666667,
    "lat": 34.4547222222222
  },
  {
    "row": 51,
    "city": "広島市安佐南区",
    "name": "戸山(国)",
    "lon": 132.355,
    "lat": 34.4816666666667
  },
  {
    "row": 52,
    "city": "広島市安佐南区",
    "name": "奥畑",
    "lon": 132.375833333333,
    "lat": 34.4586111111111
  },
  {
    "row": 53,
    "city": "広島市安佐南区",
    "name": "瀬戸内ハイツ",
    "lon": 132.421111111111,
    "lat": 34.4744444444444
  },
  {
    "row": 54,
    "city": "広島市安佐南区",
    "name": "祇園山本",
    "lon": 132.440833333333,
    "lat": 34.4455555555556
  },
  {
    "row": 55,
    "city": "広島市安佐南区",
    "name": "相田(国)",
    "lon": 132.441111111111,
    "lat": 34.4616666666667
  },
  {
    "row": 56,
    "city": "広島市安佐南区",
    "name": "毘沙門台(国)",
    "lon": 132.461111111111,
    "lat": 34.4844444444444
  },
  {
    "row": 57,
    "city": "広島市安佐南区",
    "name": "高瀬(国)",
    "lon": 132.499722222222,
    "lat": 34.4802777777778
  },
  {
    "row": 58,
    "city": "広島市安佐北区",
    "name": "宇賀",
    "lon": 132.366388888889,
    "lat": 34.5275
  },
  {
    "row": 59,
    "city": "広島市安佐北区",
    "name": "くすの木台(国)",
    "lon": 132.386666666667,
    "lat": 34.5052777777778
  },
  {
    "row": 60,
    "city": "広島市安佐北区",
    "name": "沢田(国)",
    "lon": 132.404444444444,
    "lat": 34.5575
  },
  {
    "row": 61,
    "city": "広島市安佐北区",
    "name": "小河内(国)",
    "lon": 132.404444444444,
    "lat": 34.5577777777778
  },
  {
    "row": 62,
    "city": "広島市安佐北区",
    "name": "久地",
    "lon": 132.417777777778,
    "lat": 34.5047222222222
  },
  {
    "row": 63,
    "city": "広島市安佐北区",
    "name": "小河内",
    "lon": 132.4325,
    "lat": 34.5733333333333
  },
  {
    "row": 64,
    "city": "広島市安佐北区",
    "name": "飯室(国)",
    "lon": 132.433888888889,
    "lat": 34.5352777777778
  },
  {
    "row": 65,
    "city": "広島市安佐北区",
    "name": "日浦",
    "lon": 132.438888888889,
    "lat": 34.5091666666667
  },
  {
    "row": 66,
    "city": "広島市安佐北区",
    "name": "鈴張(国)",
    "lon": 132.469722222222,
    "lat": 34.5836111111111
  },
  {
    "row": 67,
    "city": "広島市安佐北区",
    "name": "片廻山",
    "lon": 132.481666666667,
    "lat": 34.6041666666667
  },
  {
    "row": 68,
    "city": "広島市安佐北区",
    "name": "勝木",
    "lon": 132.4675,
    "lat": 34.5366666666667
  },
  {
    "row": 69,
    "city": "広島市安佐北区",
    "name": "綾ヶ谷",
    "lon": 132.490555555556,
    "lat": 34.5669444444444
  },
  {
    "row": 70,
    "city": "広島市安佐北区",
    "name": "南原(国)",
    "lon": 132.514722222222,
    "lat": 34.5516666666667
  },
  {
    "row": 71,
    "city": "広島市安佐北区",
    "name": "堂免橋",
    "lon": 132.516111111111,
    "lat": 34.5572222222222
  },
  {
    "row": 72,
    "city": "広島市安佐北区",
    "name": "上原",
    "lon": 132.516666666667,
    "lat": 34.5111111111111
  },
  {
    "row": 73,
    "city": "広島市安佐北区",
    "name": "大林(国)",
    "lon": 132.556666666667,
    "lat": 34.5611111111111
  },
  {
    "row": 74,
    "city": "広島市安佐北区",
    "name": "安佐北区役所",
    "lon": 132.507777777778,
    "lat": 34.5188888888889
  },
  {
    "row": 75,
    "city": "広島市安佐北区",
    "name": "高陽",
    "lon": 132.511944444444,
    "lat": 34.4558333333333
  },
  {
    "row": 76,
    "city": "広島市安佐北区",
    "name": "三入(気)",
    "lon": 132.53,
    "lat": 34.545
  },
  {
    "row": 77,
    "city": "広島市安佐北区",
    "name": "三入東",
    "lon": 132.537222222222,
    "lat": 34.5322222222222
  },
  {
    "row": 78,
    "city": "広島市安佐北区",
    "name": "深川(国)",
    "lon": 132.531944444444,
    "lat": 34.4880555555556
  },
  {
    "row": 79,
    "city": "広島市安佐北区",
    "name": "狩留家",
    "lon": 132.580833333333,
    "lat": 34.4672222222222
  },
  {
    "row": 80,
    "city": "広島市安佐北区",
    "name": "狩留家(国)",
    "lon": 132.581388888889,
    "lat": 34.4858333333333
  },
  {
    "row": 81,
    "city": "広島市安佐北区",
    "name": "白木山",
    "lon": 132.578055555556,
    "lat": 34.5180555555556
  },
  {
    "row": 82,
    "city": "広島市安佐北区",
    "name": "市川(国)",
    "lon": 132.592222222222,
    "lat": 34.535
  },
  {
    "row": 83,
    "city": "広島市安佐北区",
    "name": "三田",
    "lon": 132.606666666667,
    "lat": 34.4983333333333
  },
  {
    "row": 84,
    "city": "広島市安佐北区",
    "name": "白木(三日市)",
    "lon": 132.655555555556,
    "lat": 34.5536111111111
  },
  {
    "row": 85,
    "city": "広島市安佐北区",
    "name": "白木",
    "lon": 132.673611,
    "lat": 34.550278
  },
  {
    "row": 86,
    "city": "広島市安佐北区",
    "name": "井原",
    "lon": 132.669722222222,
    "lat": 34.5958333333333
  },
  {
    "row": 87,
    "city": "広島市安佐北区",
    "name": "白木(国)",
    "lon": 132.673888888889,
    "lat": 34.5505555555556
  },
  {
    "row": 88,
    "city": "広島市安芸区",
    "name": "安芸区役所",
    "lon": 132.52557059,
    "lat": 34.37165907
  },
  {
    "row": 89,
    "city": "広島市安芸区",
    "name": "瀬野川",
    "lon": 132.547222222222,
    "lat": 34.3922222222222
  },
  {
    "row": 90,
    "city": "広島市安芸区",
    "name": "立石",
    "lon": 132.587777777778,
    "lat": 34.4377777777778
  },
  {
    "row": 91,
    "city": "広島市安芸区",
    "name": "景浦",
    "lon": 132.596111111111,
    "lat": 34.3861111111111
  },
  {
    "row": 92,
    "city": "広島市安芸区",
    "name": "阿戸",
    "lon": 132.6325,
    "lat": 34.3694444444444
  },
  {
    "row": 93,
    "city": "広島市安芸区",
    "name": "上瀬野",
    "lon": 132.632222222222,
    "lat": 34.4283333333333
  },
  {
    "row": 94,
    "city": "広島市佐伯区",
    "name": "大谷(国)",
    "lon": 132.198055555556,
    "lat": 34.4286111111111
  },
  {
    "row": 95,
    "city": "広島市佐伯区",
    "name": "赤土地(国)",
    "lon": 132.249722222222,
    "lat": 34.4325
  },
  {
    "row": 96,
    "city": "広島市佐伯区",
    "name": "菅沢",
    "lon": 132.258888888889,
    "lat": 34.4811111111111
  },
  {
    "row": 97,
    "city": "広島市佐伯区",
    "name": "重光",
    "lon": 132.286111111111,
    "lat": 34.4297222222222
  },
  {
    "row": 98,
    "city": "広島市佐伯区",
    "name": "佐伯湯来(気)",
    "lon": 132.29,
    "lat": 34.4983333333333
  },
  {
    "row": 99,
    "city": "広島市佐伯区",
    "name": "湯来(国)",
    "lon": 132.315555555556,
    "lat": 34.5244444444444
  },
  {
    "row": 100,
    "city": "広島市佐伯区",
    "name": "杉並台",
    "lon": 132.300555555556,
    "lat": 34.4319444444444
  },
  {
    "row": 101,
    "city": "広島市佐伯区",
    "name": "五日市観音",
    "lon": 132.339166666667,
    "lat": 34.3791666666667
  },
  {
    "row": 102,
    "city": "広島市佐伯区",
    "name": "彩が丘",
    "lon": 132.343888888889,
    "lat": 34.4105555555556
  },
  {
    "row": 103,
    "city": "広島市佐伯区",
    "name": "魚切ダム",
    "lon": 132.330277777778,
    "lat": 34.4283333333333
  },
  {
    "row": 104,
    "city": "広島市佐伯区",
    "name": "石内(国)",
    "lon": 132.361388888889,
    "lat": 34.4411111111111
  },
  {
    "row": 105,
    "city": "広島市佐伯区",
    "name": "梶毛ダム",
    "lon": 132.3775,
    "lat": 34.4408333333333
  },
  {
    "row": 106,
    "city": "広島市佐伯区",
    "name": "五月が丘",
    "lon": 132.405277777778,
    "lat": 34.4202777777778
  },
  {
    "row": 107,
    "city": "坂町",
    "name": "坂",
    "lon": 132.516666666667,
    "lat": 34.3383333333333
  },
  {
    "row": 108,
    "city": "府中町",
    "name": "揚倉山",
    "lon": 132.525,
    "lat": 34.395
  },
  {
    "row": 109,
    "city": "海田町",
    "name": "海田",
    "lon": 132.545277777778,
    "lat": 34.3680555555556
  },
  {
    "row": 110,
    "city": "熊野町",
    "name": "熊野町",
    "lon": 132.582777777778,
    "lat": 34.3388888888889
  },
  {
    "row": 111,
    "city": "江田島市",
    "name": "高祖",
    "lon": 132.400833333333,
    "lat": 34.2597222222222
  },
  {
    "row": 112,
    "city": "江田島市",
    "name": "中町",
    "lon": 132.438611111111,
    "lat": 34.2211111111111
  },
  {
    "row": 113,
    "city": "江田島市",
    "name": "大柿町",
    "lon": 132.461666666667,
    "lat": 34.1727777777778
  },
  {
    "row": 114,
    "city": "江田島市",
    "name": "秋月",
    "lon": 132.491388888889,
    "lat": 34.2283333333333
  },
  {
    "row": 115,
    "city": "呉市",
    "name": "宇和木",
    "lon": 132.498888888889,
    "lat": 34.1291666666667
  },
  {
    "row": 116,
    "city": "呉市",
    "name": "尾曽郷",
    "lon": 132.499166666667,
    "lat": 34.0933333333333
  },
  {
    "row": 117,
    "city": "呉市",
    "name": "倉橋(気)",
    "lon": 132.503333333333,
    "lat": 34.1033333333333
  },
  {
    "row": 118,
    "city": "呉市",
    "name": "室尾",
    "lon": 132.540555555556,
    "lat": 34.1
  },
  {
    "row": 119,
    "city": "呉市",
    "name": "田原",
    "lon": 132.507222222222,
    "lat": 34.1866666666667
  },
  {
    "row": 120,
    "city": "呉市",
    "name": "波多見",
    "lon": 132.546111111111,
    "lat": 34.1758333333333
  },
  {
    "row": 121,
    "city": "呉市",
    "name": "天応",
    "lon": 132.515833333333,
    "lat": 34.2875
  },
  {
    "row": 122,
    "city": "呉市",
    "name": "警固屋",
    "lon": 132.546666666667,
    "lat": 34.2
  },
  {
    "row": 123,
    "city": "呉市",
    "name": "呉(気)",
    "lon": 132.55,
    "lat": 34.24
  },
  {
    "row": 124,
    "city": "呉市",
    "name": "焼山",
    "lon": 132.553888888889,
    "lat": 34.2980555555556
  },
  {
    "row": 125,
    "city": "呉市",
    "name": "呉支所",
    "lon": 132.556111111111,
    "lat": 34.2469444444444
  },
  {
    "row": 126,
    "city": "呉市",
    "name": "呉",
    "lon": 132.586944444444,
    "lat": 34.2538888888889
  },
  {
    "row": 127,
    "city": "呉市",
    "name": "広",
    "lon": 132.629444444444,
    "lat": 34.2466666666667
  },
  {
    "row": 128,
    "city": "呉市",
    "name": "小坪",
    "lon": 132.634166666667,
    "lat": 34.2080555555556
  },
  {
    "row": 129,
    "city": "呉市",
    "name": "郷原",
    "lon": 132.634722222222,
    "lat": 34.3002777777778
  },
  {
    "row": 130,
    "city": "呉市",
    "name": "仁方",
    "lon": 132.653055555556,
    "lat": 34.2227777777778
  },
  {
    "row": 131,
    "city": "呉市",
    "name": "下蒲刈",
    "lon": 132.677777777778,
    "lat": 34.1930555555556
  },
  {
    "row": 132,
    "city": "呉市",
    "name": "川尻",
    "lon": 132.683333333333,
    "lat": 34.2411111111111
  },
  {
    "row": 133,
    "city": "呉市",
    "name": "野呂川ダム",
    "lon": 132.71,
    "lat": 34.2891666666667
  },
  {
    "row": 134,
    "city": "呉市",
    "name": "内海",
    "lon": 132.740833333333,
    "lat": 34.2819444444444
  },
  {
    "row": 135,
    "city": "呉市",
    "name": "田戸",
    "lon": 132.725,
    "lat": 34.1975
  },
  {
    "row": 136,
    "city": "呉市",
    "name": "蒲刈町",
    "lon": 132.7325,
    "lat": 34.1972222222222
  },
  {
    "row": 137,
    "city": "呉市",
    "name": "呉市蒲刈(気)",
    "lon": 132.748333333333,
    "lat": 34.165
  },
  {
    "row": 138,
    "city": "呉市",
    "name": "蒲刈大浦",
    "lon": 132.749166666667,
    "lat": 34.1777777777778
  },
  {
    "row": 139,
    "city": "呉市",
    "name": "斎島",
    "lon": 132.793333333333,
    "lat": 34.1191666666667
  },
  {
    "row": 140,
    "city": "呉市",
    "name": "豊島",
    "lon": 132.796388888889,
    "lat": 34.1747222222222
  },
  {
    "row": 141,
    "city": "呉市",
    "name": "大長",
    "lon": 132.855,
    "lat": 34.1858333333333
  },
  {
    "row": 142,
    "city": "安芸太田町",
    "name": "横川",
    "lon": 132.155833333333,
    "lat": 34.5933333333333
  },
  {
    "row": 143,
    "city": "安芸太田町",
    "name": "内黒山(気)",
    "lon": 132.176666666667,
    "lat": 34.5966666666667
  },
  {
    "row": 144,
    "city": "安芸太田町",
    "name": "内黒",
    "lon": 132.19,
    "lat": 34.5955555555556
  },
  {
    "row": 145,
    "city": "安芸太田町",
    "name": "布原",
    "lon": 132.196944444444,
    "lat": 34.5361111111111
  },
  {
    "row": 146,
    "city": "安芸太田町",
    "name": "田吹",
    "lon": 132.203333333333,
    "lat": 34.5413888888889
  },
  {
    "row": 147,
    "city": "安芸太田町",
    "name": "深入",
    "lon": 132.207222222222,
    "lat": 34.6377777777778
  },
  {
    "row": 148,
    "city": "安芸太田町",
    "name": "松原(国)",
    "lon": 132.235277777778,
    "lat": 34.6602777777778
  },
  {
    "row": 149,
    "city": "安芸太田町",
    "name": "松原",
    "lon": 132.27,
    "lat": 34.6544444444444
  },
  {
    "row": 150,
    "city": "安芸太田町",
    "name": "安芸太田町役場",
    "lon": 132.2271429,
    "lat": 34.57675738
  },
  {
    "row": 151,
    "city": "安芸太田町",
    "name": "筒賀(国)",
    "lon": 132.2475,
    "lat": 34.5580555555556
  },
  {
    "row": 152,
    "city": "安芸太田町",
    "name": "寺領",
    "lon": 132.2675,
    "lat": 34.6058333333333
  },
  {
    "row": 153,
    "city": "安芸太田町",
    "name": "杉ノ泊",
    "lon": 132.274166666667,
    "lat": 34.6161111111111
  },
  {
    "row": 154,
    "city": "安芸太田町",
    "name": "江河内",
    "lon": 132.289166666667,
    "lat": 34.5905555555556
  },
  {
    "row": 155,
    "city": "安芸太田町",
    "name": "中ノ原",
    "lon": 132.304166666667,
    "lat": 34.5627777777778
  },
  {
    "row": 156,
    "city": "安芸太田町",
    "name": "猪山",
    "lon": 132.31,
    "lat": 34.6619444444444
  },
  {
    "row": 157,
    "city": "安芸太田町",
    "name": "温井ダム(国)",
    "lon": 132.303333333333,
    "lat": 34.635
  },
  {
    "row": 158,
    "city": "安芸太田町",
    "name": "加計(国)",
    "lon": 132.319722222222,
    "lat": 34.6088888888889
  },
  {
    "row": 159,
    "city": "安芸太田町",
    "name": "加計(気)",
    "lon": 132.32,
    "lat": 34.61
  },
  {
    "row": 160,
    "city": "安芸太田町",
    "name": "安芸太田支所",
    "lon": 132.327222222222,
    "lat": 34.6119444444444
  },
  {
    "row": 161,
    "city": "安芸太田町",
    "name": "水谷",
    "lon": 132.353611111111,
    "lat": 34.6122222222222
  },
  {
    "row": 162,
    "city": "安芸太田町",
    "name": "黒峠",
    "lon": 132.366388888889,
    "lat": 34.5691666666667
  },
  {
    "row": 163,
    "city": "北広島町",
    "name": "八幡(気)",
    "lon": 132.173333333333,
    "lat": 34.7083333333333
  },
  {
    "row": 164,
    "city": "北広島町",
    "name": "二川",
    "lon": 132.197222222222,
    "lat": 34.7177777777778
  },
  {
    "row": 165,
    "city": "北広島町",
    "name": "雄鹿原(国)",
    "lon": 132.2425,
    "lat": 34.7175
  },
  {
    "row": 166,
    "city": "北広島町",
    "name": "上奥原(国)",
    "lon": 132.270277777778,
    "lat": 34.7636111111111
  },
  {
    "row": 167,
    "city": "北広島町",
    "name": "芸北",
    "lon": 132.28,
    "lat": 34.7566666666667
  },
  {
    "row": 168,
    "city": "北広島町",
    "name": "川小田",
    "lon": 132.286111111111,
    "lat": 34.7325
  },
  {
    "row": 169,
    "city": "北広島町",
    "name": "王泊(気)",
    "lon": 132.311666666667,
    "lat": 34.6983333333333
  },
  {
    "row": 170,
    "city": "北広島町",
    "name": "王泊(国)",
    "lon": 132.316388888889,
    "lat": 34.7044444444444
  },
  {
    "row": 171,
    "city": "北広島町",
    "name": "大暮(国)",
    "lon": 132.330833333333,
    "lat": 34.7516666666667
  },
  {
    "row": 172,
    "city": "北広島町",
    "name": "高野",
    "lon": 132.377777777778,
    "lat": 34.7586111111111
  },
  {
    "row": 173,
    "city": "北広島町",
    "name": "溝口(国)",
    "lon": 132.381944444444,
    "lat": 34.705
  },
  {
    "row": 174,
    "city": "北広島町",
    "name": "七曲(国)",
    "lon": 132.399444444444,
    "lat": 34.615
  },
  {
    "row": 175,
    "city": "北広島町",
    "name": "中原",
    "lon": 132.42,
    "lat": 34.6811111111111
  },
  {
    "row": 176,
    "city": "北広島町",
    "name": "吉木",
    "lon": 132.433888888889,
    "lat": 34.6266666666667
  },
  {
    "row": 177,
    "city": "北広島町",
    "name": "志路原(国)",
    "lon": 132.443333333333,
    "lat": 34.7155555555556
  },
  {
    "row": 178,
    "city": "北広島町",
    "name": "都志見(気)",
    "lon": 132.443333333333,
    "lat": 34.6466666666667
  },
  {
    "row": 179,
    "city": "北広島町",
    "name": "大塚",
    "lon": 132.446388888889,
    "lat": 34.7802777777778
  },
  {
    "row": 180,
    "city": "北広島町",
    "name": "大朝(気)",
    "lon": 132.463333333333,
    "lat": 34.7683333333333
  },
  {
    "row": 181,
    "city": "北広島町",
    "name": "大朝(国)",
    "lon": 132.483888888889,
    "lat": 34.7644444444444
  },
  {
    "row": 182,
    "city": "北広島町",
    "name": "本地(国)",
    "lon": 132.505833333333,
    "lat": 34.6422222222222
  },
  {
    "row": 183,
    "city": "北広島町",
    "name": "新都",
    "lon": 132.507222222222,
    "lat": 34.6569444444444
  },
  {
    "row": 184,
    "city": "北広島町",
    "name": "川戸",
    "lon": 132.516666666667,
    "lat": 34.7325
  },
  {
    "row": 185,
    "city": "北広島町",
    "name": "藤原(国)",
    "lon": 132.540555555556,
    "lat": 34.7375
  },
  {
    "row": 186,
    "city": "安芸高田市",
    "name": "八千代町",
    "lon": 132.606388888889,
    "lat": 34.6205555555556
  },
  {
    "row": 187,
    "city": "安芸高田市",
    "name": "土師(国)",
    "lon": 132.622222222222,
    "lat": 34.6441666666667
  },
  {
    "row": 188,
    "city": "安芸高田市",
    "name": "桑田",
    "lon": 132.609444444444,
    "lat": 34.7580555555556
  },
  {
    "row": 189,
    "city": "安芸高田市",
    "name": "美土里町",
    "lon": 132.626944444444,
    "lat": 34.7261111111111
  },
  {
    "row": 190,
    "city": "安芸高田市",
    "name": "美土里(国)",
    "lon": 132.638055555556,
    "lat": 34.7666666666667
  },
  {
    "row": 191,
    "city": "安芸高田市",
    "name": "美土里(気)",
    "lon": 132.655,
    "lat": 34.7216666666667
  },
  {
    "row": 192,
    "city": "安芸高田市",
    "name": "多治比",
    "lon": 132.647222222222,
    "lat": 34.6811111111111
  },
  {
    "row": 193,
    "city": "安芸高田市",
    "name": "吉田町",
    "lon": 132.711666666667,
    "lat": 34.6680555555556
  },
  {
    "row": 194,
    "city": "安芸高田市",
    "name": "吉田(国)",
    "lon": 132.714722222222,
    "lat": 34.6652777777778
  },
  {
    "row": 195,
    "city": "安芸高田市",
    "name": "川根",
    "lon": 132.650277777778,
    "lat": 34.8233333333333
  },
  {
    "row": 196,
    "city": "安芸高田市",
    "name": "佐々部",
    "lon": 132.726944444444,
    "lat": 34.785
  },
  {
    "row": 197,
    "city": "安芸高田市",
    "name": "高宮(国)",
    "lon": 132.744444444444,
    "lat": 34.7816666666667
  },
  {
    "row": 198,
    "city": "安芸高田市",
    "name": "向原坂",
    "lon": 132.737777777778,
    "lat": 34.6094444444444
  },
  {
    "row": 199,
    "city": "安芸高田市",
    "name": "向原(国)",
    "lon": 132.761666666667,
    "lat": 34.6075
  },
  {
    "row": 200,
    "city": "安芸高田市",
    "name": "甲田(気)",
    "lon": 132.76,
    "lat": 34.695
  },
  {
    "row": 201,
    "city": "安芸高田市",
    "name": "下甲立",
    "lon": 132.768333333333,
    "lat": 34.7122222222222
  },
  {
    "row": 202,
    "city": "東広島市",
    "name": "志和(気)",
    "lon": 132.66,
    "lat": 34.4983333333333
  },
  {
    "row": 203,
    "city": "東広島市",
    "name": "志和東",
    "lon": 132.676944444444,
    "lat": 34.4880555555556
  },
  {
    "row": 204,
    "city": "東広島市",
    "name": "吉川",
    "lon": 132.676666666667,
    "lat": 34.3969444444444
  },
  {
    "row": 205,
    "city": "東広島市",
    "name": "東広島(気)",
    "lon": 132.7,
    "lat": 34.4166666666667
  },
  {
    "row": 206,
    "city": "東広島市",
    "name": "篠",
    "lon": 132.724444444444,
    "lat": 34.4761111111111
  },
  {
    "row": 207,
    "city": "東広島市",
    "name": "郷曽",
    "lon": 132.720833333333,
    "lat": 34.3822222222222
  },
  {
    "row": 208,
    "city": "東広島市",
    "name": "東広島支所",
    "lon": 132.743611111111,
    "lat": 34.4252777777778
  },
  {
    "row": 209,
    "city": "東広島市",
    "name": "下三永",
    "lon": 132.768888888889,
    "lat": 34.3969444444444
  },
  {
    "row": 210,
    "city": "東広島市",
    "name": "黒瀬町",
    "lon": 132.676666666667,
    "lat": 34.3244444444444
  },
  {
    "row": 211,
    "city": "東広島市",
    "name": "造賀",
    "lon": 132.762222222222,
    "lat": 34.4852777777778
  },
  {
    "row": 212,
    "city": "東広島市",
    "name": "高美が丘",
    "lon": 132.7925,
    "lat": 34.4575
  },
  {
    "row": 213,
    "city": "東広島市",
    "name": "福富ダム",
    "lon": 132.777222222222,
    "lat": 34.5302777777778
  },
  {
    "row": 214,
    "city": "東広島市",
    "name": "久芳",
    "lon": 132.778888888889,
    "lat": 34.5358333333333
  },
  {
    "row": 215,
    "city": "東広島市",
    "name": "岩伏",
    "lon": 132.815833333333,
    "lat": 34.3577777777778
  },
  {
    "row": 216,
    "city": "東広島市",
    "name": "三津",
    "lon": 132.8175,
    "lat": 34.3291666666667
  },
  {
    "row": 217,
    "city": "東広島市",
    "name": "乃美",
    "lon": 132.827777777778,
    "lat": 34.5680555555556
  },
  {
    "row": 218,
    "city": "東広島市",
    "name": "安宿(気)",
    "lon": 132.838333333333,
    "lat": 34.5666666666667
  },
  {
    "row": 219,
    "city": "東広島市",
    "name": "吉原",
    "lon": 132.853055555556,
    "lat": 34.6030555555556
  },
  {
    "row": 220,
    "city": "東広島市",
    "name": "宇山",
    "lon": 132.818333333333,
    "lat": 34.5161111111111
  },
  {
    "row": 221,
    "city": "東広島市",
    "name": "入野",
    "lon": 132.868888888889,
    "lat": 34.4225
  },
  {
    "row": 222,
    "city": "東広島市",
    "name": "日本ヶ峰",
    "lon": 132.876388888889,
    "lat": 34.4858333333333
  },
  {
    "row": 223,
    "city": "東広島市",
    "name": "河内支所",
    "lon": 132.88835465,
    "lat": 34.47219441
  },
  {
    "row": 224,
    "city": "東広島市",
    "name": "河内",
    "lon": 132.891944444444,
    "lat": 34.4719444444444
  },
  {
    "row": 225,
    "city": "東広島市",
    "name": "椋梨ダム",
    "lon": 132.893333333333,
    "lat": 34.5025
  },
  {
    "row": 226,
    "city": "竹原市",
    "name": "田万里(西堀坂)",
    "lon": 132.827222222222,
    "lat": 34.4097222222222
  },
  {
    "row": 227,
    "city": "竹原市",
    "name": "田万里",
    "lon": 132.839166666667,
    "lat": 34.4086111111111
  },
  {
    "row": 228,
    "city": "竹原市",
    "name": "仁賀",
    "lon": 132.977777777778,
    "lat": 34.7913888888889
  },
  {
    "row": 229,
    "city": "竹原市",
    "name": "仁賀ダム",
    "lon": 132.842777777778,
    "lat": 34.3769444444444
  },
  {
    "row": 230,
    "city": "竹原市",
    "name": "吉名",
    "lon": 132.870833333333,
    "lat": 34.3163888888889
  },
  {
    "row": 231,
    "city": "竹原市",
    "name": "西野",
    "lon": 133.058888888889,
    "lat": 34.4058333333333
  },
  {
    "row": 232,
    "city": "竹原市",
    "name": "朝日山",
    "lon": 132.8775511,
    "lat": 34.3531179
  },
  {
    "row": 233,
    "city": "竹原市",
    "name": "新庄",
    "lon": 132.890555555556,
    "lat": 34.3841666666667
  },
  {
    "row": 234,
    "city": "竹原市",
    "name": "竹原",
    "lon": 132.900555555556,
    "lat": 34.3352777777778
  },
  {
    "row": 235,
    "city": "竹原市",
    "name": "竹原市役所",
    "lon": 132.90533494,
    "lat": 34.3412346
  },
  {
    "row": 236,
    "city": "竹原市",
    "name": "小梨",
    "lon": 132.914166666667,
    "lat": 34.3705555555556
  },
  {
    "row": 237,
    "city": "竹原市",
    "name": "小梨(北谷平)",
    "lon": 132.919444444444,
    "lat": 34.3705555555556
  },
  {
    "row": 238,
    "city": "竹原市",
    "name": "忠海",
    "lon": 132.979166666667,
    "lat": 34.3327777777778
  },
  {
    "row": 239,
    "city": "竹原市",
    "name": "竹原(気)",
    "lon": 132.981666666667,
    "lat": 34.33
  },
  {
    "row": 240,
    "city": "大崎上島町",
    "name": "明石",
    "lon": 132.884444444444,
    "lat": 34.21
  },
  {
    "row": 241,
    "city": "大崎上島町",
    "name": "大崎町",
    "lon": 132.889444444444,
    "lat": 34.2419444444444
  },
  {
    "row": 242,
    "city": "大崎上島町",
    "name": "上組",
    "lon": 132.916388888889,
    "lat": 34.2577777777778
  },
  {
    "row": 243,
    "city": "三次市",
    "name": "大津(国)",
    "lon": 132.678055555556,
    "lat": 34.8880555555556
  },
  {
    "row": 244,
    "city": "三次市",
    "name": "森山",
    "lon": 132.698888888889,
    "lat": 34.9255555555556
  },
  {
    "row": 245,
    "city": "三次市",
    "name": "作木支所",
    "lon": 132.71886964,
    "lat": 34.86525665
  },
  {
    "row": 246,
    "city": "三次市",
    "name": "作木西野",
    "lon": 132.738333333333,
    "lat": 34.9
  },
  {
    "row": 247,
    "city": "三次市",
    "name": "大山",
    "lon": 132.743611111111,
    "lat": 34.8183333333333
  },
  {
    "row": 248,
    "city": "三次市",
    "name": "横谷",
    "lon": 132.756111111111,
    "lat": 34.9233333333333
  },
  {
    "row": 249,
    "city": "三次市",
    "name": "上作木",
    "lon": 132.756944444444,
    "lat": 34.8941666666667
  },
  {
    "row": 250,
    "city": "三次市",
    "name": "布野(国)",
    "lon": 132.78,
    "lat": 34.8855555555556
  },
  {
    "row": 251,
    "city": "三次市",
    "name": "川地",
    "lon": 132.796666666667,
    "lat": 34.7341666666667
  },
  {
    "row": 252,
    "city": "三次市",
    "name": "ゆめランド",
    "lon": 132.797777777778,
    "lat": 34.855
  },
  {
    "row": 253,
    "city": "三次市",
    "name": "日下",
    "lon": 132.801111111111,
    "lat": 34.8175
  },
  {
    "row": 254,
    "city": "三次市",
    "name": "青河",
    "lon": 132.819722222222,
    "lat": 34.7613888888889
  },
  {
    "row": 255,
    "city": "三次市",
    "name": "櫃田",
    "lon": 132.826944444444,
    "lat": 34.95
  },
  {
    "row": 256,
    "city": "三次市",
    "name": "君田(気)",
    "lon": 132.83,
    "lat": 34.9283333333333
  },
  {
    "row": 257,
    "city": "三次市",
    "name": "板木(国)",
    "lon": 132.832222222222,
    "lat": 34.6933333333333
  },
  {
    "row": 258,
    "city": "三次市",
    "name": "藤根原",
    "lon": 132.842777777778,
    "lat": 34.7202777777778
  },
  {
    "row": 259,
    "city": "三次市",
    "name": "三次(国)",
    "lon": 132.845555555556,
    "lat": 34.8038888888889
  },
  {
    "row": 260,
    "city": "三次市",
    "name": "三次(気)",
    "lon": 132.85,
    "lat": 34.8116666666667
  },
  {
    "row": 261,
    "city": "三次市",
    "name": "三次市役所",
    "lon": 132.85172182,
    "lat": 34.80555566
  },
  {
    "row": 262,
    "city": "三次市",
    "name": "東入君",
    "lon": 132.858055555556,
    "lat": 34.8772222222222
  },
  {
    "row": 263,
    "city": "三次市",
    "name": "北部建設",
    "lon": 132.859444444444,
    "lat": 34.8047222222222
  },
  {
    "row": 264,
    "city": "三次市",
    "name": "酒屋",
    "lon": 132.86,
    "lat": 34.7627777777778
  },
  {
    "row": 265,
    "city": "三次市",
    "name": "上壱",
    "lon": 132.862222222222,
    "lat": 34.6508333333333
  },
  {
    "row": 266,
    "city": "三次市",
    "name": "西河内",
    "lon": 132.865,
    "lat": 34.8433333333333
  },
  {
    "row": 267,
    "city": "三次市",
    "name": "南畑敷",
    "lon": 132.875277777778,
    "lat": 34.8066666666667
  },
  {
    "row": 268,
    "city": "三次市",
    "name": "畠敷",
    "lon": 132.892222222222,
    "lat": 34.8136111111111
  },
  {
    "row": 269,
    "city": "三次市",
    "name": "三次石原",
    "lon": 132.899722222222,
    "lat": 34.7255555555556
  },
  {
    "row": 270,
    "city": "三次市",
    "name": "上田",
    "lon": 132.911111111111,
    "lat": 34.6941666666667
  },
  {
    "row": 271,
    "city": "三次市",
    "name": "田幸",
    "lon": 132.915555555556,
    "lat": 34.7530555555556
  },
  {
    "row": 272,
    "city": "三次市",
    "name": "敷地",
    "lon": 132.965555555556,
    "lat": 34.7475
  },
  {
    "row": 273,
    "city": "三次市",
    "name": "仁賀",
    "lon": 132.989444,
    "lat": 34.782222
  },
  {
    "row": 274,
    "city": "三次市",
    "name": "灰塚ダム(国)",
    "lon": 132.986666666667,
    "lat": 34.7858333333333
  },
  {
    "row": 275,
    "city": "三次市",
    "name": "吉舎(国)",
    "lon": 132.991666666667,
    "lat": 34.7219444444444
  },
  {
    "row": 276,
    "city": "三次市",
    "name": "上安田(国)",
    "lon": 133.033611111111,
    "lat": 34.7466666666667
  },
  {
    "row": 277,
    "city": "三次市",
    "name": "西野(国)",
    "lon": 133.073333333333,
    "lat": 34.7086111111111
  },
  {
    "row": 278,
    "city": "三次市",
    "name": "甲奴本郷",
    "lon": 133.088333333333,
    "lat": 34.7011111111111
  },
  {
    "row": 279,
    "city": "庄原市",
    "name": "高暮(国)",
    "lon": 132.795,
    "lat": 34.995
  },
  {
    "row": 280,
    "city": "庄原市",
    "name": "高暮",
    "lon": 132.831666666667,
    "lat": 35.0175
  },
  {
    "row": 281,
    "city": "庄原市",
    "name": "竹地谷",
    "lon": 132.878611111111,
    "lat": 34.9405555555556
  },
  {
    "row": 282,
    "city": "庄原市",
    "name": "大月(国)",
    "lon": 132.883333333333,
    "lat": 34.915
  },
  {
    "row": 283,
    "city": "庄原市",
    "name": "高野(気)",
    "lon": 132.901666666667,
    "lat": 35.0333333333333
  },
  {
    "row": 284,
    "city": "庄原市",
    "name": "新市",
    "lon": 132.915,
    "lat": 35.0363888888889
  },
  {
    "row": 285,
    "city": "庄原市",
    "name": "永田",
    "lon": 132.926944444444,
    "lat": 34.8941666666667
  },
  {
    "row": 286,
    "city": "庄原市",
    "name": "古頃",
    "lon": 132.947222222222,
    "lat": 34.9761111111111
  },
  {
    "row": 287,
    "city": "庄原市",
    "name": "比和(国)",
    "lon": 132.983055555556,
    "lat": 34.9730555555556
  },
  {
    "row": 288,
    "city": "庄原市",
    "name": "比和",
    "lon": 132.985555555556,
    "lat": 34.9833333333333
  },
  {
    "row": 289,
    "city": "庄原市",
    "name": "比和支所",
    "lon": 132.98598823,
    "lat": 34.98339599
  },
  {
    "row": 290,
    "city": "庄原市",
    "name": "庄原(国)",
    "lon": 133.012222222222,
    "lat": 34.8630555555556
  },
  {
    "row": 291,
    "city": "庄原市",
    "name": "戸郷川",
    "lon": 133.014166666667,
    "lat": 34.85
  },
  {
    "row": 292,
    "city": "庄原市",
    "name": "庄原支所",
    "lon": 133.018611111111,
    "lat": 34.8594444444444
  },
  {
    "row": 293,
    "city": "庄原市",
    "name": "庄原(気)",
    "lon": 133.023333333333,
    "lat": 34.86
  },
  {
    "row": 294,
    "city": "庄原市",
    "name": "吾妻山",
    "lon": 133.028611111111,
    "lat": 35.0594444444444
  },
  {
    "row": 295,
    "city": "庄原市",
    "name": "三河内",
    "lon": 133.036111111111,
    "lat": 34.9658333333333
  },
  {
    "row": 296,
    "city": "庄原市",
    "name": "川北",
    "lon": 133.040833333333,
    "lat": 34.9291666666667
  },
  {
    "row": 297,
    "city": "庄原市",
    "name": "熊野",
    "lon": 133.055833333333,
    "lat": 35.0327777777778
  },
  {
    "row": 298,
    "city": "庄原市",
    "name": "大屋",
    "lon": 133.058333333333,
    "lat": 34.9677777777778
  },
  {
    "row": 299,
    "city": "庄原市",
    "name": "総領(国)",
    "lon": 133.066666666667,
    "lat": 34.7830555555556
  },
  {
    "row": 300,
    "city": "庄原市",
    "name": "県民の森",
    "lon": 133.082222222222,
    "lat": 35.0477777777778
  },
  {
    "row": 301,
    "city": "庄原市",
    "name": "大戸",
    "lon": 133.083055555556,
    "lat": 34.9269444444444
  },
  {
    "row": 302,
    "city": "庄原市",
    "name": "中領家",
    "lon": 133.106666666667,
    "lat": 34.7944444444444
  },
  {
    "row": 303,
    "city": "庄原市",
    "name": "油木(国)",
    "lon": 133.110277777778,
    "lat": 35.0463888888889
  },
  {
    "row": 304,
    "city": "庄原市",
    "name": "黒目(国)",
    "lon": 133.116111111111,
    "lat": 34.7386111111111
  },
  {
    "row": 305,
    "city": "庄原市",
    "name": "西城支所",
    "lon": 133.11779363,
    "lat": 34.93988414
  },
  {
    "row": 306,
    "city": "庄原市",
    "name": "西城(国)",
    "lon": 133.119722222222,
    "lat": 34.9441666666667
  },
  {
    "row": 307,
    "city": "庄原市",
    "name": "西城中野",
    "lon": 133.12,
    "lat": 34.9461111111111
  },
  {
    "row": 308,
    "city": "庄原市",
    "name": "庄原ダム",
    "lon": 133.074444444444,
    "lat": 34.9025
  },
  {
    "row": 309,
    "city": "庄原市",
    "name": "上領家(国)",
    "lon": 133.120555555556,
    "lat": 34.8025
  },
  {
    "row": 310,
    "city": "庄原市",
    "name": "本村町",
    "lon": 133.120555555556,
    "lat": 34.8766666666667
  },
  {
    "row": 311,
    "city": "庄原市",
    "name": "八鳥",
    "lon": 133.144722222222,
    "lat": 34.9661111111111
  },
  {
    "row": 312,
    "city": "庄原市",
    "name": "小鳥原",
    "lon": 133.15751,
    "lat": 35.037102
  },
  {
    "row": 313,
    "city": "庄原市",
    "name": "道後山(気)",
    "lon": 133.188333333333,
    "lat": 35.0566666666667
  },
  {
    "row": 314,
    "city": "庄原市",
    "name": "雨連",
    "lon": 133.149166666667,
    "lat": 34.8680555555556
  },
  {
    "row": 315,
    "city": "庄原市",
    "name": "森",
    "lon": 133.200833333333,
    "lat": 34.9522222222222
  },
  {
    "row": 316,
    "city": "庄原市",
    "name": "小奴可",
    "lon": 133.211388888889,
    "lat": 34.9905555555556
  },
  {
    "row": 317,
    "city": "庄原市",
    "name": "道後山",
    "lon": 133.216666666667,
    "lat": 35.0644444444444
  },
  {
    "row": 318,
    "city": "庄原市",
    "name": "持丸",
    "lon": 133.238333333333,
    "lat": 35.0461111111111
  },
  {
    "row": 319,
    "city": "庄原市",
    "name": "三坂",
    "lon": 133.241111111111,
    "lat": 34.8427777777778
  },
  {
    "row": 320,
    "city": "庄原市",
    "name": "所尾",
    "lon": 133.257777777778,
    "lat": 34.9855555555556
  },
  {
    "row": 321,
    "city": "庄原市",
    "name": "東城(国)",
    "lon": 133.265555555556,
    "lat": 34.9025
  },
  {
    "row": 322,
    "city": "庄原市",
    "name": "東城(気)",
    "lon": 133.276666666667,
    "lat": 34.895
  },
  {
    "row": 323,
    "city": "庄原市",
    "name": "川東",
    "lon": 133.279722222222,
    "lat": 34.9005555555556
  },
  {
    "row": 324,
    "city": "庄原市",
    "name": "千鳥",
    "lon": 133.281388888889,
    "lat": 35.0033333333333
  },
  {
    "row": 325,
    "city": "庄原市",
    "name": "小室",
    "lon": 133.285555555556,
    "lat": 34.9472222222222
  },
  {
    "row": 326,
    "city": "三原市",
    "name": "本郷(気)",
    "lon": 132.918333333333,
    "lat": 34.435
  },
  {
    "row": 327,
    "city": "三原市",
    "name": "本谷",
    "lon": 132.918333333333,
    "lat": 34.4247222222222
  },
  {
    "row": 328,
    "city": "三原市",
    "name": "和木",
    "lon": 132.922222222222,
    "lat": 34.5088888888889
  },
  {
    "row": 329,
    "city": "三原市",
    "name": "下徳良",
    "lon": 132.951388888889,
    "lat": 34.5402777777778
  },
  {
    "row": 330,
    "city": "三原市",
    "name": "甲原",
    "lon": 132.976111111111,
    "lat": 34.3694444444444
  },
  {
    "row": 331,
    "city": "三原市",
    "name": "菅川橋",
    "lon": 132.98,
    "lat": 34.4294444444444
  },
  {
    "row": 332,
    "city": "三原市",
    "name": "末光",
    "lon": 133.027777777778,
    "lat": 34.3775
  },
  {
    "row": 333,
    "city": "三原市",
    "name": "江木",
    "lon": 133.031111111111,
    "lat": 34.5433333333333
  },
  {
    "row": 334,
    "city": "三原市",
    "name": "西野",
    "lon": 133.053059,
    "lat": 34.410834
  },
  {
    "row": 335,
    "city": "三原市",
    "name": "吉田",
    "lon": 133.071666666667,
    "lat": 34.5483333333333
  },
  {
    "row": 336,
    "city": "三原市",
    "name": "三原支所",
    "lon": 133.0775,
    "lat": 34.3936111111111
  },
  {
    "row": 337,
    "city": "三原市",
    "name": "須波",
    "lon": 133.113333333333,
    "lat": 34.3525
  },
  {
    "row": 338,
    "city": "三原市",
    "name": "野間川ダム",
    "lon": 133.068333333333,
    "lat": 34.5294444444444
  },
  {
    "row": 339,
    "city": "世羅町",
    "name": "黒川",
    "lon": 132.898055555556,
    "lat": 34.6436111111111
  },
  {
    "row": 340,
    "city": "世羅町",
    "name": "津名(国)",
    "lon": 132.916944444444,
    "lat": 34.6613888888889
  },
  {
    "row": 341,
    "city": "世羅町",
    "name": "賀茂",
    "lon": 132.975833333333,
    "lat": 34.5788888888889
  },
  {
    "row": 342,
    "city": "世羅町",
    "name": "賀茂(国)",
    "lon": 132.988888888889,
    "lat": 34.5741666666667
  },
  {
    "row": 343,
    "city": "世羅町",
    "name": "安田",
    "lon": 133.007222222222,
    "lat": 34.6383333333333
  },
  {
    "row": 344,
    "city": "世羅町",
    "name": "世羅(気)",
    "lon": 133.05,
    "lat": 34.5833333333333
  },
  {
    "row": 345,
    "city": "世羅町",
    "name": "甲山",
    "lon": 133.058055555556,
    "lat": 34.5847222222222
  },
  {
    "row": 346,
    "city": "世羅町",
    "name": "別迫",
    "lon": 133.07,
    "lat": 34.6255555555556
  },
  {
    "row": 347,
    "city": "世羅町",
    "name": "山田川ダム",
    "lon": 133.0725,
    "lat": 34.6366666666667
  },
  {
    "row": 348,
    "city": "世羅町",
    "name": "三川",
    "lon": 133.105555555556,
    "lat": 34.615
  },
  {
    "row": 349,
    "city": "世羅町",
    "name": "宇津戸(国)",
    "lon": 133.113611111111,
    "lat": 34.5591666666667
  },
  {
    "row": 350,
    "city": "世羅町",
    "name": "八田原(国)",
    "lon": 133.145833333333,
    "lat": 34.5905555555556
  },
  {
    "row": 351,
    "city": "尾道市",
    "name": "御調",
    "lon": 133.076388888889,
    "lat": 34.5013888888889
  },
  {
    "row": 352,
    "city": "尾道市",
    "name": "御調(国)",
    "lon": 133.115277777778,
    "lat": 34.495
  },
  {
    "row": 353,
    "city": "尾道市",
    "name": "高尾",
    "lon": 133.137222222222,
    "lat": 34.5180555555556
  },
  {
    "row": 354,
    "city": "尾道市",
    "name": "木ノ庄",
    "lon": 133.152222222222,
    "lat": 34.4769444444444
  },
  {
    "row": 355,
    "city": "尾道市",
    "name": "美之郷",
    "lon": 133.158055555556,
    "lat": 34.4477777777778
  },
  {
    "row": 356,
    "city": "尾道市",
    "name": "美ノ郷",
    "lon": 133.191111111111,
    "lat": 34.4561111111111
  },
  {
    "row": 357,
    "city": "尾道市",
    "name": "栗原",
    "lon": 133.177777777778,
    "lat": 34.4247222222222
  },
  {
    "row": 358,
    "city": "尾道市",
    "name": "梶山田",
    "lon": 133.214166666667,
    "lat": 34.4952777777778
  },
  {
    "row": 359,
    "city": "尾道市",
    "name": "原田",
    "lon": 133.200833333333,
    "lat": 34.4880555555556
  },
  {
    "row": 360,
    "city": "尾道市",
    "name": "尾道市役所",
    "lon": 133.20568058,
    "lat": 34.40914756
  },
  {
    "row": 361,
    "city": "尾道市",
    "name": "浦崎",
    "lon": 133.264722222222,
    "lat": 34.4002777777778
  },
  {
    "row": 362,
    "city": "尾道市",
    "name": "有井",
    "lon": 133.183333333333,
    "lat": 34.3816666666667
  },
  {
    "row": 363,
    "city": "尾道市",
    "name": "因島",
    "lon": 133.169444444444,
    "lat": 34.2944444444444
  },
  {
    "row": 364,
    "city": "尾道市",
    "name": "外浦",
    "lon": 133.186944444444,
    "lat": 34.3308333333333
  },
  {
    "row": 365,
    "city": "尾道市",
    "name": "林",
    "lon": 133.105555555556,
    "lat": 34.305
  },
  {
    "row": 366,
    "city": "尾道市",
    "name": "生口島(気)",
    "lon": 133.123333333333,
    "lat": 34.2783333333333
  },
  {
    "row": 367,
    "city": "府中市",
    "name": "上下(気)",
    "lon": 133.116666666667,
    "lat": 34.6933333333333
  },
  {
    "row": 368,
    "city": "府中市",
    "name": "二森",
    "lon": 133.137222222222,
    "lat": 34.7027777777778
  },
  {
    "row": 369,
    "city": "府中市",
    "name": "古城(国)",
    "lon": 133.145555555556,
    "lat": 34.65
  },
  {
    "row": 370,
    "city": "府中市",
    "name": "羽高",
    "lon": 133.166388888889,
    "lat": 34.5605555555556
  },
  {
    "row": 371,
    "city": "府中市",
    "name": "府中(気)",
    "lon": 133.231666666667,
    "lat": 34.5616666666667
  },
  {
    "row": 372,
    "city": "府中市",
    "name": "府中(国)",
    "lon": 133.236111111111,
    "lat": 34.5641666666667
  },
  {
    "row": 373,
    "city": "福山市",
    "name": "上安井",
    "lon": 133.268611111111,
    "lat": 34.5880555555556
  },
  {
    "row": 374,
    "city": "福山市",
    "name": "大谷山(国)",
    "lon": 133.275277777778,
    "lat": 34.5008333333333
  },
  {
    "row": 375,
    "city": "福山市",
    "name": "駅家(国)",
    "lon": 133.311944444444,
    "lat": 34.6002777777778
  },
  {
    "row": 376,
    "city": "福山市",
    "name": "七社",
    "lon": 133.343611111111,
    "lat": 34.5280555555556
  },
  {
    "row": 377,
    "city": "福山市",
    "name": "古市",
    "lon": 133.388055555556,
    "lat": 34.5466666666667
  },
  {
    "row": 378,
    "city": "福山市",
    "name": "神辺(国)",
    "lon": 133.418333333333,
    "lat": 34.5738888888889
  },
  {
    "row": 379,
    "city": "福山市",
    "name": "四川",
    "lon": 133.338055555556,
    "lat": 34.5997222222222
  },
  {
    "row": 380,
    "city": "福山市",
    "name": "加茂",
    "lon": 133.356388888889,
    "lat": 34.5886111111111
  },
  {
    "row": 381,
    "city": "福山市",
    "name": "福山(気)",
    "lon": 133.246666666667,
    "lat": 34.4466666666667
  },
  {
    "row": 382,
    "city": "福山市",
    "name": "南松永",
    "lon": 133.250833333333,
    "lat": 34.4297222222222
  },
  {
    "row": 383,
    "city": "福山市",
    "name": "大浦",
    "lon": 133.307222222222,
    "lat": 34.3688888888889
  },
  {
    "row": 384,
    "city": "福山市",
    "name": "沼隈町",
    "lon": 133.318055555556,
    "lat": 34.3902777777778
  },
  {
    "row": 385,
    "city": "福山市",
    "name": "瀬戸",
    "lon": 133.333333333333,
    "lat": 34.4836111111111
  },
  {
    "row": 386,
    "city": "福山市",
    "name": "山野",
    "lon": 133.391388888889,
    "lat": 34.6541666666667
  },
  {
    "row": 387,
    "city": "福山市",
    "name": "東部建設",
    "lon": 133.3725,
    "lat": 34.4938888888889
  },
  {
    "row": 388,
    "city": "福山市",
    "name": "福山(国)",
    "lon": 133.376388888889,
    "lat": 34.4958333333333
  },
  {
    "row": 389,
    "city": "福山市",
    "name": "箕島(国)",
    "lon": 133.405277777778,
    "lat": 34.4297222222222
  },
  {
    "row": 390,
    "city": "福山市",
    "name": "田尻",
    "lon": 133.374444444444,
    "lat": 34.4197222222222
  },
  {
    "row": 391,
    "city": "神石高原町",
    "name": "神石町",
    "lon": 133.177222222222,
    "lat": 34.8002777777778
  },
  {
    "row": 392,
    "city": "神石高原町",
    "name": "川南",
    "lon": 133.205833333333,
    "lat": 34.6741666666667
  },
  {
    "row": 393,
    "city": "神石高原町",
    "name": "高蓋(国)",
    "lon": 133.209444444444,
    "lat": 34.6758333333333
  },
  {
    "row": 394,
    "city": "神石高原町",
    "name": "高蓋",
    "lon": 133.213333333333,
    "lat": 34.7016666666667
  },
  {
    "row": 395,
    "city": "神石高原町",
    "name": "星居山",
    "lon": 133.220833333333,
    "lat": 34.7441666666667
  },
  {
    "row": 396,
    "city": "神石高原町",
    "name": "五殿山",
    "lon": 133.236944444444,
    "lat": 34.6636111111111
  },
  {
    "row": 397,
    "city": "神石高原町",
    "name": "神石高原町役場",
    "lon": 133.25152188,
    "lat": 34.70364303
  },
  {
    "row": 398,
    "city": "神石高原町",
    "name": "油木安田",
    "lon": 133.275833333333,
    "lat": 34.7666666666667
  },
  {
    "row": 399,
    "city": "神石高原町",
    "name": "油木(気)",
    "lon": 133.278333333333,
    "lat": 34.7633333333333
  },
  {
    "row": 400,
    "city": "神石高原町",
    "name": "井関",
    "lon": 133.297777777778,
    "lat": 34.68
  },
  {
    "row": 401,
    "city": "神石高原町",
    "name": "坂瀬川",
    "lon": 133.305555555556,
    "lat": 34.6605555555556
  },
  {
    "row": 402,
    "city": "神石高原町",
    "name": "時安",
    "lon": 133.321111111111,
    "lat": 34.6925
  },
  {
    "row": 403,
    "city": "神石高原町",
    "name": "時安(国)",
    "lon": 133.340555555556,
    "lat": 34.6972222222222
  },
  {
    "row": 404,
    "city": "神石高原町",
    "name": "上豊松",
    "lon": 133.33389722,
    "lat": 34.76316771
  },
  {
    "row": 405,
    "city": "神石高原町",
    "name": "米見山",
    "lon": 133.2915744,
    "lat": 34.7761996
  },
  {
    "row": 406,
    "city": "神石高原町",
    "name": "下豊松",
    "lon": 133.340555555556,
    "lat": 34.775
  },
  {
    "row": 407,
    "city": "神石高原町",
    "name": "笹尾",
    "lon": 133.2931631,
    "lat": 34.8019401
  },
  {
    "row": 408,
    "city": "神石高原町",
    "name": "有木",
    "lon": 133.3471427,
    "lat": 34.8045777
  }
]