ID,City,Name,Web_Lat,Web_Lon,Sys_Name,Sys_Dist,CSV_Name,CSV_Dist,Status
10001,広島市南区,西部建設,34.3816667,132.4683333,西部建設,0.0,西部建設,0.0,OK
10002,広島市安佐南区,瀬戸内ハイツ,34.4744444,132.4211111,瀬戸内ハイツ,0.0,瀬戸内ハイツ,0.0,OK
10003,広島市安芸区,上瀬野,34.4283333,132.6322222,上瀬野,0.0,上瀬野,0.0,OK
10004,広島市佐伯区,重光,34.4298056,132.2861944,重光,0.0,重光,0.0,OK
10005,廿日市市,後畑,34.4044444,132.3066667,後畑,0.0,後畑,0.0,OK
10006,熊野町,熊野町,34.3388889,132.5827778,熊野町,0.0,熊野町,0.0,OK
10007,呉市,呉支所,34.2469444,132.5561111,呉支所,0.0,呉支所,0.0,OK
10008,呉市,蒲刈町,34.1972222,132.7325,蒲刈町,0.0,蒲刈町,0.0,OK
10009,廿日市市,吉和,34.484384,132.137638,吉和,0.0,吉和,0.0,OK
10010,廿日市市,栗栖,34.375,132.1391667,栗栖,0.0,栗栖,0.0,OK
10011,廿日市市,廿日市支所,34.3572778,132.3431111,廿日市支所,0.0,廿日市支所,0.0,OK
10012,廿日市市,大野,34.2866667,132.2755556,大野,0.0,大野,0.0,OK
10013,江田島市,大柿町,34.1727778,132.4616667,大柿町,0.0,大柿町,0.0,OK
10014,安芸太田町,安芸太田支所,34.6119444,132.3272222,安芸太田支所,0.0,安芸太田支所,0.0,OK
10015,北広島町,芸北,34.7566667,132.28,芸北,0.0,芸北,0.0,OK
10016,安芸高田市,吉田町,34.6680556,132.7116667,吉田町,0.0,吉田町,0.0,OK
10017,安芸高田市,八千代町,34.6205556,132.6063889,八千代町,0.0,八千代町,0.0,OK
10018,安芸高田市,美土里町,34.7261111,132.6269444,美土里町,0.0,美土里町,0.0,OK
10019,東広島市,東広島支所,34.4252778,132.7436111,東広島支所,0.0,東広島支所,0.0,OK
10020,東広島市,黒瀬町,34.3244444,132.6766667,黒瀬町,0.0,黒瀬町,0.0,OK
10021,東広島市,河内,34.4719444,132.8919444,河内,0.0,河内,0.0,OK
10022,東広島市,造賀,34.4852778,132.7622222,造賀,0.0,造賀,0.0,OK
10023,東広島市,乃美,34.5680556,132.8277778,乃美,0.0,乃美,0.0,OK
10024,三原市,下徳良,34.5403333,132.9514167,下徳良,0.0,下徳良,0.0,OK
10025,呉市,野呂川ダム,34.2891111,132.7098889,野呂川ダム,0.0,野呂川ダム,0.0,OK
10026,東広島市,三津,34.3291667,132.8175,三津,0.0,三津,0.0,OK
10027,竹原市,竹原,34.3352778,132.9005556,竹原,7504.6,竹原,7504.6,DIFF
10028,大崎上島町,大崎町,34.2419444,132.8894444,大崎町,0.0,大崎町,0.0,OK
10029,三原市,甲原,34.3694444,132.9761111,甲原,0.0,甲原,0.0,OK
10030,三原市,本谷,34.4247222,132.9183333,本谷,0.0,本谷,0.0,OK
10031,三原市,菅川橋,34.4294444,132.98,菅川橋,0.0,菅川橋,0.0,OK
10032,三原市,三原支所,34.3936111,133.0775,三原支所,0.0,三原支所,0.0,OK
10033,尾道市,因島,34.2944444,133.1694444,因島,0.0,因島,0.0,OK
10034,尾道市,美之郷,34.4477778,133.1580556,美之郷,0.0,美之郷,0.0,OK
10035,尾道市,梶山田,34.4952778,133.2141667,梶山田,0.0,梶山田,0.0,OK
10036,尾道市,御調,34.5013889,133.0763889,御調,3633.9,御調,3633.9,DIFF
10037,三原市,江木,34.5433333,133.0311111,江木,0.0,江木,0.0,OK
10038,福山市,加茂,34.5886111,133.3563889,加茂,0.0,加茂,0.0,OK
10039,福山市,上安井,34.5880556,133.2686111,上安井,0.0,上安井,0.0,OK
10040,福山市,沼隈町,34.3902778,133.3180556,沼隈町,0.0,沼隈町,0.0,OK
10041,福山市,東部建設,34.4938889,133.3725,東部建設,0.0,東部建設,0.0,OK
10042,世羅町,安田,34.6383333,133.0072222,安田,0.0,安田,0.0,OK
10043,神石高原町,井関,34.68,133.2977222,井関,0.0,井関,0.0,OK
10044,神石高原町,神石町,34.8002778,133.1772222,神石町,0.0,神石町,0.0,OK
10045,三次市,北部建設,34.8047222,132.8594444,北部建設,0.0,北部建設,0.0,OK
10046,三次市,三次石原,34.7255556,132.8997222,三次石原,0.0,三次石原,0.0,OK
10047,三次市,上壱,34.6508333,132.8622222,上壱,0.0,上壱,0.0,OK
10048,庄原市,比和,34.9833333,132.9855556,比和(国),1165.3,比和(国),1165.3,DIFF
10049,庄原市,庄原支所,34.8594444,133.0186111,庄原支所,0.0,庄原支所,0.0,OK
10050,廿日市市,小瀬川ダム,34.3088889,132.1238889,小瀬川ダム,0.0,小瀬川ダム,0.0,OK
10051,広島市佐伯区,魚切ダム,34.4283333,132.3302778,魚切ダム,0.0,魚切ダム,0.0,OK
10052,東広島市,椋梨ダム,34.5025278,132.89325,椋梨ダム,0.0,椋梨ダム,0.0,OK
10053,東広島市,下三永,34.3969444,132.7688889,下三永,0.0,下三永,0.0,OK
10054,東広島市,吉川,34.3969444,132.6766667,吉川,0.0,吉川,0.0,OK
10055,東広島市,篠,34.4761111,132.7244444,篠,0.0,篠,0.0,OK
10056,世羅町,三川,34.615,133.1055556,三川,0.0,三川,0.0,OK
10057,世羅町,甲山,34.5847222,133.0580556,甲山,0.0,甲山,0.0,OK
10058,福山市,七社,34.5280556,133.3436111,七社,0.0,七社,0.0,OK
10059,世羅町,賀茂,34.5788889,132.9758333,賀茂,1305.5,賀茂,1305.5,DIFF
10060,福山市,四川,34.5997222,133.3380556,四川,0.0,四川,0.0,OK
10061,世羅町,山田川ダム,34.6366667,133.0725,山田川ダム,0.0,山田川ダム,0.0,OK
10062,府中市,二森,34.7026389,133.1371111,二森,0.0,二森,0.0,OK
10063,広島市佐伯区,梶毛ダム,34.4408333,132.3775,梶毛ダム,0.0,梶毛ダム,0.0,OK
10064,広島市安佐北区,飯室,34.5352778,132.4338889,飯室(国),0.0,飯室(国),0.0,OK
10065,広島市佐伯区,湯来,34.5244444,132.3155556,湯来(国),0.0,湯来(国),0.0,OK
10066,広島市安佐北区,白木,34.5505556,132.6738889,白木(三日市),3694.0,白木(三日市),3694.0,DIFF
10067,安芸太田町,加計,34.6088889,132.3197222,加計(国),126.1,加計(国),126.1,DIFF
10068,北広島町,七曲,34.615,132.3994444,七曲(国),0.0,七曲(国),0.0,OK
10069,広島市安佐南区,戸山,34.4816667,132.355,戸山(国),0.0,戸山(国),0.0,OK
10070,広島市佐伯区,大谷,34.4286111,132.1980556,大谷(国),0.0,大谷(国),0.0,OK
10071,広島市安佐北区,鈴張,34.5836111,132.4697222,鈴張(国),0.0,鈴張(国),0.0,OK
10072,安芸高田市,向原,34.6075,132.7616667,向原(国),0.0,向原(国),0.0,OK
10073,安芸太田町,筒賀,34.5580556,132.2475,筒賀(国),0.0,筒賀(国),0.0,OK
10074,広島市安佐北区,大林,34.5611111,132.5566667,大林(国),0.0,大林(国),0.0,OK
10075,広島市安佐北区,南原,34.5516667,132.5147222,南原(国),0.0,南原(国),0.0,OK
10076,広島市安佐北区,狩留家,34.4858333,132.5813889,狩留家,2070.1,狩留家,2070.1,DIFF
10077,広島市安佐南区,高瀬,34.4802778,132.4997222,高瀬(国),0.0,高瀬(国),0.0,OK
10078,安芸太田町,松原,34.6602778,132.2352778,松原(国),3241.4,松原(国),3241.4,DIFF
10079,北広島町,溝口,34.705,132.3819444,溝口(国),0.0,溝口(国),0.0,OK
10080,広島市中区,広島,34.3969444,132.4622222,広島(気),162.6,広島(気),162.6,DIFF
10081,北広島町,大朝,34.7644444,132.4838889,大朝(気),1926.8,大朝(気),1926.8,DIFF
10082,北広島町,志路原,34.7155556,132.4433333,志路原(国),0.0,志路原(国),0.0,OK
10083,北広島町,本地,34.6422222,132.5058333,本地(国),0.0,本地(国),0.0,OK
10084,北広島町,藤原,34.7375,132.5405556,藤原(国),0.0,藤原(国),0.0,OK
10085,安芸高田市,土師,34.6441667,132.6222222,土師(国),0.0,土師(国),0.0,OK
10086,三次市,三次,34.8038889,132.8455556,三次(国),955.3,三次(国),955.3,DIFF
10087,庄原市,総領,34.7830556,133.0666667,総領(国),0.0,総領(国),0.0,OK
10088,安芸高田市,高宮,34.7816667,132.7444444,高宮(国),0.0,高宮(国),0.0,OK
10089,三次市,吉舎,34.7219444,132.9916667,吉舎(国),0.0,吉舎(国),0.0,OK
10090,三次市,布野,34.8855556,132.78,布野(国),0.0,布野(国),0.0,OK
10091,三次市,板木,34.6933333,132.8322222,板木(国),0.0,板木(国),0.0,OK
10092,安芸高田市,美土里,34.7666667,132.6380556,美土里(国),5237.8,美土里(国),5237.8,DIFF
10093,庄原市,大月,34.915,132.8833333,大月(国),0.0,大月(国),0.0,OK
10094,世羅町,津名,34.6613889,132.9169444,津名(国),0.0,津名(国),0.0,OK
10095,庄原市,庄原,34.8630556,133.0122222,庄原(国),1069.2,庄原(国),1069.2,DIFF
10096,庄原市,比和,34.9730556,132.9830556,比和(国),0.0,比和(国),0.0,OK
10097,庄原市,油木,35.0463889,133.1102778,油木(国),0.0,油木(国),0.0,OK
10098,庄原市,西城,34.9441667,133.1197222,西城(国),0.0,西城(国),0.0,OK
10099,庄原市,高暮,34.995,132.795,高暮(国),4170.2,高暮(国),4170.2,DIFF
10100,三次市,大津,34.8880556,132.6780556,大津(国),0.0,大津(国),0.0,OK
10101,安芸高田市,吉田,34.6652778,132.7147222,吉田(国),0.0,吉田(国),0.0,OK
10102,府中市,府中,34.5641667,133.2361111,府中(気),492.9,府中(気),492.9,DIFF
10103,福山市,神辺,34.5738889,133.4183333,神辺(国),0.0,神辺(国),0.0,OK
10104,福山市,駅家,34.6002778,133.3119444,駅家(国),0.0,駅家(国),0.0,OK
10105,福山市,福山,34.4958333,133.3763889,福山(気),13088.2,福山(気),13088.2,DIFF
10106,尾道市,御調,34.495,133.1152778,御調,0.0,御調,0.0,OK
10107,福山市,大谷山,34.5008333,133.2752778,大谷山(国),0.0,大谷山(国),0.0,OK
10108,福山市,箕島,34.4297222,133.4052778,箕島(国),0.0,箕島(国),0.0,OK
10109,広島市安佐北区,くすの木台,34.5052778,132.3866667,くすの木台(国),0.0,くすの木台(国),0.0,OK
10110,広島市東区,温品,34.4375,132.5016667,温品(国),0.0,温品(国),0.0,OK
10111,広島市安佐南区,相田,34.4616667,132.4411111,相田(国),0.0,相田(国),0.0,OK
10112,廿日市市,地御前,34.3375,132.3052778,地御前(国),0.0,地御前(国),0.0,OK
10113,広島市安佐南区,毘沙門台,34.4880556,132.4591667,毘沙門台(国),0.0,毘沙門台(国),0.0,OK
10114,大竹市,湯船,34.2530556,132.2186111,湯船(国),0.0,湯船(国),0.0,OK
10115,廿日市市,野貝原,34.3730556,132.2766667,野貝原(国),0.0,野貝原(国),0.0,OK
10116,広島市安佐北区,深川,34.4880556,132.5319444,深川(国),0.0,深川(国),0.0,OK
10117,広島市佐伯区,赤土地,34.4325,132.2497222,赤土地(国),0.0,赤土地(国),0.0,OK
10118,広島市佐伯区,石内,34.4411111,132.3613889,石内(国),0.0,石内(国),0.0,OK
10119,広島市安佐北区,小河内,34.5577778,132.4044444,小河内(国),3097.0,小河内(国),3097.0,DIFF
10120,広島市安佐北区,市川,34.535,132.5922222,市川(国),0.0,市川(国),0.0,OK
10121,広島市安佐北区,沢田,34.5575,132.4044444,沢田(国),0.0,沢田(国),0.0,OK
10122,広島市安佐南区,吉山,34.4547222,132.3316667,吉山(国),0.0,吉山(国),0.0,OK
10123,廿日市市,矢草,34.3344444,132.2666667,矢草(国),0.0,矢草(国),0.0,OK
10124,東広島市,福富ダム,34.5302778,132.7772222,福富ダム,0.0,福富ダム,0.0,OK
10125,廿日市市,楢原,34.3911111,132.25,楢原(国),0.0,楢原(国),0.0,OK
10126,三次市,灰塚ダム,34.7858333,132.9866667,灰塚ダム(国),0.0,灰塚ダム(国),0.0,OK
10127,三次市,上安田,34.7466667,133.0336111,上安田(国),0.0,上安田(国),0.0,OK
10128,三次市,西野,34.7086111,133.0733333,西野(国),0.0,西野(国),0.0,OK
10129,庄原市,上領家,34.8025,133.1205556,上領家(国),0.0,上領家(国),0.0,OK
10130,庄原市,黒目,34.7386111,133.1161111,黒目(国),0.0,黒目(国),0.0,OK
10131,庄原市,東城,34.915294,133.278349,東城(国),2261.8,東城(国),2261.8,DIFF
10132,神石高原町,時安,34.6972222,133.3405556,時安,1853.6,時安,1853.6,DIFF
10133,安芸太田町,温井ダム,34.635,132.3033333,温井ダム(国),0.0,温井ダム(国),0.0,OK
10134,北広島町,雄鹿原,34.7175,132.2425,雄鹿原(国),0.0,雄鹿原(国),0.0,OK
10135,北広島町,王泊,34.7044444,132.3163889,王泊(気),805.1,王泊(気),805.1,DIFF
10136,北広島町,大暮,34.7516667,132.3308333,大暮(国),0.0,大暮(国),0.0,OK
10137,北広島町,上奥原,34.7636111,132.2702778,上奥原(国),0.0,上奥原(国),0.0,OK
10138,世羅町,八田原,34.5905556,133.1458333,八田原(国),0.0,八田原(国),0.0,OK
10139,世羅町,賀茂,34.5741667,132.9888889,賀茂,0.0,賀茂,0.0,OK
10140,世羅町,宇津戸,34.5591667,133.1136111,宇津戸(国),0.0,宇津戸(国),0.0,OK
10141,府中市,古城,34.65,133.1455556,古城(国),0.0,古城(国),0.0,OK
10142,神石高原町,高蓋,34.6758333,133.2094444,高蓋(国),2894.5,高蓋(国),2894.5,DIFF
10143,大竹市,弥栄ダム,34.2355556,132.1652778,弥栄ダム(国),0.0,弥栄ダム(国),0.0,OK
10144,廿日市市,中道,34.3680556,132.0858333,中道(国),0.0,中道(国),0.0,OK
10145,廿日市市,津田,34.3711111,132.1908333,津田(国),0.0,津田(国),0.0,OK
10146,竹原市,仁賀ダム,34.3769444,132.8427778,仁賀ダム,0.0,仁賀ダム,0.0,OK
10147,三原市,野間川ダム,34.5294444,133.0683333,野間川ダム,0.0,野間川ダム,0.0,OK
10148,庄原市,庄原ダム,34.9025,133.0744444,庄原ダム,0.0,庄原ダム,0.0,OK
10149,廿日市市,冠山,34.4666667,132.1158333,N/A,,N/A,,MISSING
10150,廿日市市,中村,34.4013889,132.2558333,N/A,,N/A,,MISSING
10151,廿日市市,渡ノ瀬ダム,34.3183333,132.2075,N/A,,N/A,,MISSING
10152,安芸太田町,田代,34.6194444,132.1644444,N/A,,N/A,,MISSING
10153,安芸太田町,横川,34.6005556,132.1586111,横川,842.4,横川,842.4,DIFF
10154,北広島町,王泊ダム,34.6983333,132.3133333,N/A,,N/A,,MISSING
10155,北広島町,八幡,34.7175,132.1730556,八幡(気),1019.6,八幡(気),1019.6,DIFF
10156,神石高原町,油木,34.7741667,133.2775,油木(気),1207.0,油木(気),1207.0,DIFF
10157,庄原市,新市,35.0330556,132.9083333,新市,707.5,新市,707.5,DIFF
10158,庄原市,小奴可,34.9977778,133.2441667,小奴可,3091.9,小奴可,3091.9,DIFF
10159,庄原市,畑,34.8808333,133.1927778,N/A,,N/A,,MISSING
10160,庄原市,河内,34.8691667,133.2952778,N/A,,N/A,,MISSING
10161,安芸太田町,立岩ダム,34.545,132.1608333,N/A,,N/A,,MISSING
10162,安芸太田町,柴木川ダム,34.5966667,132.2158333,N/A,,N/A,,MISSING
10163,北広島町,樽床ダム,34.6516667,132.1691667,N/A,,N/A,,MISSING
11001,北広島町,吉木,34.62675,132.4337777,吉木,0.0,吉木,0.0,OK
11002,北広島町,川戸,34.7325277,132.5166666,川戸,0.0,川戸,0.0,OK
11003,北広島町,大塚,34.7801944,132.4464166,大塚,0.0,大塚,0.0,OK
11004,北広島町,中原,34.6810277,132.4200555,中原,0.0,中原,0.0,OK
11005,北広島町,新都,34.6569166,132.5071666,新都,0.0,新都,0.0,OK
11006,安芸高田市,向原坂,34.6093055,132.7376944,向原坂,0.0,向原坂,0.0,OK
11007,安芸高田市,佐々部,34.7850555,132.7268611,佐々部,0.0,佐々部,0.0,OK
11008,安芸高田市,多治比,34.6810277,132.64725,多治比,0.0,多治比,0.0,OK
11009,安芸高田市,下甲立,34.7123333,132.7683611,下甲立,0.0,下甲立,0.0,OK
11010,安芸高田市,川根,34.8231944,132.6501666,川根,0.0,川根,0.0,OK
11011,安芸高田市,桑田,34.7580277,132.6093611,桑田,0.0,桑田,0.0,OK
11012,呉市,室尾,34.1,132.5405,室尾,0.0,室尾,0.0,OK
11013,呉市,尾曽郷,34.09325,132.4992777,尾曽郷,0.0,尾曽郷,0.0,OK
11014,呉市,宇和木,34.1291666,132.4988888,宇和木,0.0,宇和木,0.0,OK
11015,呉市,下蒲刈,34.1930833,132.6777222,下蒲刈,0.0,下蒲刈,0.0,OK
11016,呉市,仁方,34.2226666,132.6531666,仁方,0.0,仁方,0.0,OK
11017,呉市,田戸,34.1975833,132.7249444,田戸,0.0,田戸,0.0,OK
11018,呉市,波多見,34.1757777,132.5461388,波多見,0.0,波多見,0.0,OK
11019,呉市,蒲刈大浦,34.1778333,132.7491111,蒲刈大浦,0.0,蒲刈大浦,0.0,OK
11020,呉市,天応,34.2875555,132.5157777,天応,0.0,天応,0.0,OK
11021,呉市,田原,34.1865555,132.50725,田原,0.0,田原,0.0,OK
11022,広島市安佐北区,日浦,34.5091388,132.4389444,日浦,0.0,日浦,0.0,OK
11023,広島市西区,己斐,34.4065277,132.4255555,己斐,0.0,己斐,0.0,OK
11024,広島市中区,江波,34.3731111,132.4360833,江波,0.0,江波,0.0,OK
11025,広島市佐伯区,彩が丘,34.4104444,132.3439444,彩が丘,0.0,彩が丘,0.0,OK
11026,坂町,坂,34.3382777,132.5166944,坂,0.0,坂,0.0,OK
11027,広島市東区,中山新町,34.4208611,132.5,中山新町,0.0,中山新町,0.0,OK
11028,広島市南区,楠那,34.3627222,132.4861944,楠那,0.0,楠那,0.0,OK
11029,尾道市,外浦,34.3307222,133.1868333,外浦,0.0,外浦,0.0,OK
11030,三原市,吉田,34.5481944,133.0716666,吉田,0.0,吉田,0.0,OK
11031,三原市,須波,34.3525,133.1133333,須波,0.0,須波,0.0,OK
11032,三原市,西野,34.4057777,133.059,西野,0.0,西野,0.0,OK
11033,三原市,末光,34.3774444,133.0278888,末光,0.0,末光,0.0,OK
11034,尾道市,有井,34.3816111,133.1833333,有井,0.0,有井,0.0,OK
11035,尾道市,林,34.3049722,133.1054722,林,0.0,林,0.0,OK
11036,三次市,横谷,34.9233611,132.7560555,横谷,0.0,横谷,0.0,OK
11037,三次市,仁賀,34.7913055,132.9776666,仁賀,0.0,仁賀,0.0,OK
11038,三次市,青河,34.7614166,132.8196111,青河,0.0,青河,0.0,OK
11039,三次市,東入君,34.8771388,132.8581111,東入君,0.0,東入君,0.0,OK
11040,三次市,南畑敷,34.8067222,132.8751944,南畑敷,0.0,南畑敷,0.0,OK
11041,三次市,敷地,34.7473888,132.9655,敷地,0.0,敷地,0.0,OK
11042,三次市,櫃田,34.95,132.8269166,櫃田,0.0,櫃田,0.0,OK
11043,庄原市,永田,34.8940833,132.9268888,永田,0.0,永田,0.0,OK
11044,庄原市,竹地谷,34.9405,132.8787222,竹地谷,0.0,竹地谷,0.0,OK
11045,庄原市,西城中野,34.9460555,133.1199722,西城中野,0.0,西城中野,0.0,OK
11046,庄原市,戸郷川,34.85,133.0141666,戸郷川,0.0,戸郷川,0.0,OK
11047,庄原市,川北,34.9292222,133.0408055,川北,0.0,川北,0.0,OK
11048,庄原市,本村町,34.8765277,133.1206388,本村町,0.0,本村町,0.0,OK
11049,庄原市,高暮,35.0175833,132.8315555,高暮(国),0.0,高暮(国),0.0,OK
11050,庄原市,新市,35.0364722,132.9148888,新市,0.0,新市,0.0,OK
11051,庄原市,川東,34.9006111,133.2798055,川東,0.0,川東,0.0,OK
11052,世羅町,黒川,34.6435,132.8981388,黒川,0.0,黒川,0.0,OK
11053,神石高原町,下豊松,34.7750833,133.3404722,下豊松,0.0,下豊松,0.0,OK
11054,神石高原町,油木安田,34.7666666,133.2756944,油木安田,0.0,油木安田,0.0,OK
11055,庄原市,中領家,34.7943055,133.1066666,中領家,0.0,中領家,0.0,OK
11056,三次市,甲奴本郷,34.7009722,133.0883333,甲奴本郷,0.0,甲奴本郷,0.0,OK
11057,神石高原町,川南,34.6741111,133.2056944,川南,0.0,川南,0.0,OK
11058,世羅町,別迫,34.6256388,133.0698888,別迫,0.0,別迫,0.0,OK
11059,江田島市,秋月,34.2283055,132.49125,秋月,0.0,秋月,0.0,OK
11060,江田島市,中町,34.2210833,132.4386388,中町,0.0,中町,0.0,OK
11061,江田島市,高祖,34.2596111,132.4009166,高祖,0.0,高祖,0.0,OK
11062,大崎上島町,明石,34.2099722,132.8844166,明石,0.0,明石,0.0,OK
11063,大崎上島町,上組,34.2576388,132.9163055,上組,0.0,上組,0.0,OK
11064,呉市,川尻,34.241,132.6833333,川尻,0.0,川尻,0.0,OK
11065,呉市,大長,34.1858611,132.8549444,大長,0.0,大長,0.0,OK
11066,竹原市,小梨,34.3704722,132.9141944,小梨,481.9,小梨,481.9,DIFF
11067,竹原市,田万里,34.4086388,132.8391388,田万里(西堀坂),1099.8,田万里(西堀坂),1099.8,DIFF
11068,呉市,豊島,34.1746111,132.7965,豊島,0.0,豊島,0.0,OK
11069,東広島市,志和東,34.4880833,132.6769722,志和東,0.0,志和東,0.0,OK
11070,東広島市,吉原,34.6029166,132.8529722,吉原,0.0,吉原,0.0,OK
11071,東広島市,久芳,34.5358333,132.77875,久芳,0.0,久芳,0.0,OK
11072,東広島市,郷曽,34.3822777,132.7209444,郷曽,0.0,郷曽,0.0,OK
11073,東広島市,高美が丘,34.4573888,132.7924166,高美が丘,0.0,高美が丘,0.0,OK
11074,三原市,和木,34.5089166,132.9223055,和木,0.0,和木,0.0,OK
11075,廿日市市,原,34.3699166,132.3053888,原,0.0,原,0.0,OK
11076,廿日市市,馬の口,34.3023055,132.2348611,馬の口,0.0,馬の口,0.0,OK
11077,広島市佐伯区,杉並台,34.432,132.3005,杉並台,0.0,杉並台,0.0,OK
11078,廿日市市,浅原,34.3433055,132.1369166,浅原,0.0,浅原,0.0,OK
11079,大竹市,大竹市,34.2379722,132.2220277,大竹市,0.0,大竹市,0.0,OK
11080,廿日市市,友和,34.3586666,132.2265277,友和,0.0,友和,0.0,OK
11081,府中市,羽高,34.5605277,133.1663055,羽高,0.0,羽高,0.0,OK
11082,福山市,瀬戸,34.4835,133.3333333,瀬戸,0.0,瀬戸,0.0,OK
11083,福山市,大浦,34.3687777,133.3070833,大浦,0.0,大浦,0.0,OK
11084,福山市,南松永,34.4298055,133.2509166,南松永,0.0,南松永,0.0,OK
11085,福山市,田尻,34.4196666,133.3743055,田尻,0.0,田尻,0.0,OK
11086,福山市,古市,34.5465555,133.3879166,古市,0.0,古市,0.0,OK
11087,福山市,山野,34.6540277,133.3914722,山野,0.0,山野,0.0,OK
11088,安芸太田町,猪山,34.6619444,132.3100555,猪山,0.0,猪山,0.0,OK
11089,北広島町,高野,34.7585833,132.3778611,高野,0.0,高野,0.0,OK
11090,北広島町,川小田,34.7325,132.2861388,川小田,0.0,川小田,0.0,OK
11091,北広島町,二川,34.7177777,132.1970833,二川,0.0,二川,0.0,OK
11092,呉市,小坪,34.2079166,132.6341388,小坪,0.0,小坪,0.0,OK
11093,海田町,海田,34.3681666,132.5452222,海田,0.0,海田,0.0,OK
11094,広島市東区,福木,34.4454722,132.5360555,福木,0.0,福木,0.0,OK
11095,府中町,揚倉山,34.3948888,132.5248888,揚倉山,0.0,揚倉山,0.0,OK
11096,広島市安佐北区,堂免橋,34.5571666,132.5161388,堂免橋,0.0,堂免橋,0.0,OK
11097,広島市安佐北区,上原,34.5111944,132.5166666,上原,0.0,上原,0.0,OK
11098,広島市安佐北区,白木,34.5535277,132.6554166,白木(三日市),2974.1,白木(三日市),2974.1,DIFF
11099,尾道市,高尾,34.5179444,133.1371111,高尾,0.0,高尾,0.0,OK
11100,三次市,作木西野,34.9000833,132.7383055,作木西野,0.0,作木西野,0.0,OK
11101,三次市,ゆめランド,34.8550277,132.7976944,ゆめランド,0.0,ゆめランド,0.0,OK
11102,呉市,斎島,34.1190277,132.7933055,斎島,0.0,斎島,0.0,OK
11103,東広島市,岩伏,34.3578611,132.8157777,岩伏,0.0,岩伏,0.0,OK
11104,竹原市,新庄,34.3842222,132.8905555,新庄,0.0,新庄,0.0,OK
11105,廿日市市,宮島町,34.2961111,132.3125,宮島町,0.0,宮島町,0.0,OK
11106,大竹市,栗谷,34.3086388,132.1573888,栗谷,0.0,栗谷,0.0,OK
11107,広島市佐伯区,菅沢,34.4809722,132.2588611,菅沢,0.0,菅沢,0.0,OK
11108,安芸太田町,江河内,34.5905,132.2891666,江河内,0.0,江河内,0.0,OK
11109,安芸太田町,黒峠,34.5692777,132.36625,黒峠,0.0,黒峠,0.0,OK
11110,安芸太田町,水谷,34.61225,132.3536666,水谷,0.0,水谷,0.0,OK
11111,安芸太田町,杉ノ泊,34.6159722,132.27425,杉ノ泊,0.0,杉ノ泊,0.0,OK
11112,呉市,郷原,34.3001944,132.63475,郷原,0.0,郷原,0.0,OK
11113,呉市,警固屋,34.2,132.5466666,警固屋,0.0,警固屋,0.0,OK
11114,呉市,広,34.2466944,132.6293055,広,0.0,広,0.0,OK
11115,呉市,焼山,34.2981388,132.55375,焼山,0.0,焼山,0.0,OK
11116,呉市,呉,34.2538333,132.5870277,呉(気),3734.9,呉(気),3734.9,DIFF
11117,呉市,内海,34.2818333,132.7408888,内海,0.0,内海,0.0,OK
11118,安芸太田町,中ノ原,34.5627777,132.3041388,中ノ原,0.0,中ノ原,0.0,OK
11119,安芸太田町,布原,34.5361666,132.1968888,布原,0.0,布原,0.0,OK
11120,広島市安佐南区,奥畑,34.4586111,132.3758333,奥畑,0.0,奥畑,0.0,OK
11121,広島市佐伯区,五月が丘,34.4201666,132.4051944,五月が丘,0.0,五月が丘,0.0,OK
11122,広島市佐伯区,五日市観音,34.3791666,132.3390555,五日市観音,0.0,五日市観音,0.0,OK
11123,広島市西区,井口台,34.3795833,132.3812222,井口台,0.0,井口台,0.0,OK
11124,広島市東区,牛田早稲田,34.4185277,132.4808888,牛田早稲田,0.0,牛田早稲田,0.0,OK
11125,広島市安佐南区,祇園山本,34.448889,132.438928,祇園山本,0.0,祇園山本,0.0,OK
11126,廿日市市,佐伯,34.3675,132.1777777,佐伯,0.0,佐伯,0.0,OK
11127,廿日市市,玖島,34.3911111,132.25,玖島,0.0,玖島,0.0,OK
11128,廿日市市,八坂,34.2683333,132.2466666,八坂,0.0,八坂,0.0,OK
11129,廿日市市,中山,34.3211111,132.2872222,中山,0.0,中山,0.0,OK
11130,廿日市市,矢草北,34.3341666,132.27,矢草北,0.0,矢草北,0.0,OK
11131,廿日市市,矢草南,34.3277777,132.2616666,矢草南,0.0,矢草南,0.0,OK
11132,廿日市市,奴メリ谷,34.2958333,132.2047222,奴メリ谷,0.0,奴メリ谷,0.0,OK
12001,庄原市,持丸,35.0461111,133.2383333,持丸,0.0,持丸,0.0,OK
12002,庄原市,千鳥,35.0033333,133.2813888,千鳥,0.0,千鳥,0.0,OK
12003,庄原市,所尾,34.9855555,133.2577777,所尾,0.0,所尾,0.0,OK
12004,庄原市,小奴可,34.9905555,133.2113888,小奴可,0.0,小奴可,0.0,OK
12005,庄原市,森,34.9522222,133.2008333,森,0.0,森,0.0,OK
12006,庄原市,小室,34.9472222,133.2855555,小室,0.0,小室,0.0,OK
12007,庄原市,雨連,34.8680555,133.1491666,雨連,0.0,雨連,0.0,OK
12008,庄原市,三坂,34.8427777,133.2411111,三坂,0.0,三坂,0.0,OK
13001,広島市安佐北区,安佐北区役所,34.5188888,132.5077777,安佐北区役所,0.0,安佐北区役所,0.0,OK
13002,広島市安佐北区,片廻山,34.6041666,132.4816666,片廻山,0.0,片廻山,0.0,OK
13003,広島市安佐北区,三入東,34.5322222,132.5372222,三入東,0.0,三入東,0.0,OK
13004,広島市安佐北区,井原,34.5958333,132.6697222,井原,0.0,井原,0.0,OK
13005,広島市安佐北区,白木(三日市),34.5286111,132.6436111,白木(三日市),0.0,白木(三日市),0.0,OK
13006,広島市安佐北区,三田,34.4983333,132.6066666,三田,0.0,三田,0.0,OK
13007,広島市安佐北区,白木山,34.5180555,132.5780555,白木山,0.0,白木山,0.0,OK
13008,広島市安佐北区,狩留家,34.4672222,132.5808333,狩留家,0.0,狩留家,0.0,OK
13009,広島市安佐北区,高陽,34.4558333,132.5119444,高陽,0.0,高陽,0.0,OK
13010,広島市安佐北区,久地,34.5047222,132.4177777,久地,0.0,久地,0.0,OK
13011,広島市安佐北区,宇賀,34.5275,132.3663888,宇賀,0.0,宇賀,0.0,OK
13012,広島市安佐北区,勝木,34.5366666,132.4675,勝木,0.0,勝木,0.0,OK
13013,広島市安佐北区,綾ヶ谷,34.5669444,132.4905555,綾ヶ谷,0.0,綾ヶ谷,0.0,OK
13014,広島市安佐北区,小河内,34.5733333,132.4325,小河内(国),0.0,小河内(国),0.0,OK
13015,広島市安芸区,安芸区役所,34.3716666,132.5258333,安芸区役所,0.0,安芸区役所,0.0,OK
13016,広島市安芸区,瀬野川,34.3922222,132.5472222,瀬野川,0.0,瀬野川,0.0,OK
13017,広島市安芸区,阿戸,34.3694444,132.6325,阿戸,0.0,阿戸,0.0,OK
13018,広島市安芸区,立石,34.4377777,132.5877777,立石,0.0,立石,0.0,OK
13019,広島市安芸区,景浦,34.3861111,132.5961111,景浦,0.0,景浦,0.0,OK
13020,竹原市,竹原市役所,34.3419444,132.9072222,竹原市役所,0.0,竹原市役所,0.0,OK
13021,竹原市,田万里(西堀坂),34.4097222,132.8272222,田万里(西堀坂),0.0,田万里(西堀坂),0.0,OK
13022,竹原市,西野,34.3986111,132.8833333,西野,0.0,西野,0.0,OK
13023,竹原市,小梨(北谷平),34.3705555,132.9194444,小梨,0.0,小梨,0.0,OK
13024,竹原市,忠海,34.336309,132.976627,忠海,0.0,忠海,0.0,OK
13025,竹原市,朝日山,34.3502777,132.8902777,朝日山,0.0,朝日山,0.0,OK
13026,竹原市,吉名,34.3163888,132.8708333,吉名,0.0,吉名,0.0,OK
13027,竹原市,仁賀,34.3666666,132.8383333,仁賀,0.0,仁賀,0.0,OK
13034,三次市,三次市役所,34.8052777,132.8519444,三次市役所,0.0,三次市役所,0.0,OK
13035,三次市,西河内,34.8459916,132.8629583,西河内,0.0,西河内,0.0,OK
13036,三次市,日下,34.8175,132.8011111,日下,0.0,日下,0.0,OK
13037,三次市,畠敷,34.8136111,132.8922222,畠敷,0.0,畠敷,0.0,OK
13038,三次市,酒屋,34.7627777,132.86,酒屋,0.0,酒屋,0.0,OK
13039,三次市,川地,34.7341666,132.7966666,川地,0.0,川地,0.0,OK
13040,三次市,藤根原,34.7202777,132.8427777,藤根原,0.0,藤根原,0.0,OK
13041,三次市,田幸,34.7530555,132.9155555,田幸,0.0,田幸,0.0,OK
13042,三次市,上田,34.6941666,132.9111111,上田,0.0,上田,0.0,OK
13043,廿日市市,吉和支所,34.4869444,132.1419444,吉和支所,0.0,吉和支所,0.0,OK
13044,廿日市市,十方山,34.5408333,132.1222222,十方山,0.0,十方山,0.0,OK
13045,廿日市市,坊主山,34.4966666,132.0666666,坊主山,0.0,坊主山,0.0,OK
13046,廿日市市,頓原,34.4519444,132.0875,頓原,0.0,頓原,0.0,OK
13047,廿日市市,もみのき,34.4747222,132.1838888,もみのき,0.0,もみのき,0.0,OK
13048,安芸太田町,安芸太田町役場,34.5769444,132.2213888,安芸太田町役場,0.0,安芸太田町役場,0.0,OK
13049,安芸太田町,松原,34.6544444,132.27,松原(国),0.0,松原(国),0.0,OK
13050,安芸太田町,深入,34.6377777,132.2072222,深入,0.0,深入,0.0,OK
13051,安芸太田町,寺領,34.6058333,132.2675,寺領,0.0,寺領,0.0,OK
13052,安芸太田町,横川,34.5933333,132.1558333,横川,0.0,横川,0.0,OK
13053,安芸太田町,内黒,34.5955555,132.19,内黒,0.0,内黒,0.0,OK
13054,安芸太田町,田吹,34.5413888,132.2033333,田吹,0.0,田吹,0.0,OK
13055,東広島市,河内支所,34.4722222,132.8883333,河内支所,0.0,河内支所,0.0,OK
13056,東広島市,日本ヶ峰,34.4858333,132.8763888,日本ヶ峰,0.0,日本ヶ峰,0.0,OK
13057,東広島市,宇山,34.5161111,132.8183333,宇山,0.0,宇山,0.0,OK
13058,東広島市,入野,34.4225,132.8688888,入野,0.0,入野,0.0,OK
13059,神石高原町,神石高原町役場,34.7036111,133.2477777,神石高原町役場,0.0,神石高原町役場,0.0,OK
13060,神石高原町,星居山,34.7441666,133.2208333,星居山,0.0,星居山,0.0,OK
13061,神石高原町,時安,34.6925,133.3211111,時安,0.0,時安,0.0,OK
13062,神石高原町,坂瀬川,34.6605555,133.3055555,坂瀬川,0.0,坂瀬川,0.0,OK
13063,神石高原町,五殿山,34.6636111,133.2369444,五殿山,0.0,五殿山,0.0,OK
13064,神石高原町,高蓋,34.7016666,133.2133333,高蓋(国),0.0,高蓋(国),0.0,OK
13065,三次市,作木支所,34.865,132.7188888,作木支所,0.0,作木支所,0.0,OK
13066,三次市,森山,34.9255555,132.6988888,森山,0.0,森山,0.0,OK
13067,三次市,上作木,34.8941666,132.7569444,上作木,0.0,上作木,0.0,OK
13068,三次市,大山,34.8183333,132.7436111,大山,0.0,大山,0.0,OK
13069,庄原市,西城支所,34.94,133.1177777,西城支所,0.0,西城支所,0.0,OK
13070,庄原市,道後山,35.0644444,133.2166666,道後山(気),2720.0,道後山(気),2720.0,DIFF
13071,庄原市,県民の森,35.0477777,133.0822222,県民の森,0.0,県民の森,0.0,OK
13072,庄原市,小鳥原,35.0375,133.1566666,小鳥原,0.0,小鳥原,0.0,OK
13073,庄原市,熊野,35.0327777,133.0558333,熊野,0.0,熊野,0.0,OK
13074,庄原市,大屋,34.9677777,133.0583333,大屋,0.0,大屋,0.0,OK
13075,庄原市,八鳥,34.9661111,133.1447222,八鳥,0.0,八鳥,0.0,OK
13076,庄原市,大戸,34.9269444,133.0830555,大戸,0.0,大戸,0.0,OK
13077,庄原市,比和支所,34.9833333,132.9861111,比和支所,0.0,比和支所,0.0,OK
13078,庄原市,吾妻山,35.0594444,133.0286111,吾妻山,0.0,吾妻山,0.0,OK
13079,庄原市,古頃,34.9761111,132.9472222,古頃,0.0,古頃,0.0,OK
13080,庄原市,三河内,34.9658333,133.0361111,三河内,0.0,三河内,0.0,OK
13081,神石高原町,笹尾,34.8077777,133.3205555,笹尾,0.0,笹尾,0.0,OK
13082,神石高原町,有木,34.7972222,133.3647222,有木,0.0,有木,0.0,OK
13083,神石高原町,上豊松,34.7508333,133.2977777,上豊松,0.0,上豊松,0.0,OK
13084,神石高原町,米見山,34.7763888,133.3302777,米見山,0.0,米見山,0.0,OK
14001,庄原市,高野,35.0333333,132.9016666,高野(気),0.0,高野(気),0.0,OK
14002,庄原市,道後山,35.0566666,133.1883333,道後山(気),0.0,道後山(気),0.0,OK
14003,三次市,君田,34.9283333,132.83,君田(気),0.0,君田(気),0.0,OK
14004,三次市,三次,34.8116666,132.85,三次(国),0.0,三次(国),0.0,OK
14005,庄原市,庄原,34.86,133.0233333,庄原(国),0.0,庄原(国),0.0,OK
14006,庄原市,東城,34.895,133.2766666,東城(国),0.0,東城(国),0.0,OK
14007,北広島町,八幡,34.7083333,132.1733333,八幡(気),0.0,八幡(気),0.0,OK
14008,北広島町,大朝,34.7683333,132.4633333,大朝(気),0.0,大朝(気),0.0,OK
14009,安芸高田市,美土里,34.7216666,132.655,美土里(国),0.0,美土里(国),0.0,OK
14010,神石高原町,油木,34.7633333,133.2783333,油木(気),0.0,油木(気),0.0,OK
14011,北広島町,王泊,34.6983333,132.3116666,王泊(気),0.0,王泊(気),0.0,OK
14012,安芸太田町,加計,34.61,132.32,加計(国),0.0,加計(国),0.0,OK
14013,北広島町,都志見,34.6466666,132.4433333,都志見(気),0.0,都志見(気),0.0,OK
14014,安芸高田市,甲田,34.695,132.76,甲田(気),0.0,甲田(気),0.0,OK
14015,府中市,上下,34.6933333,133.1166666,上下(気),0.0,上下(気),0.0,OK
14016,安芸太田町,内黒山,34.5966666,132.1766666,内黒山(気),0.0,内黒山(気),0.0,OK
14017,広島市安佐北区,三入,34.545,132.53,三入(気),0.0,三入(気),0.0,OK
14018,東広島市,安宿,34.5666666,132.8341666,安宿(気),0.0,安宿(気),0.0,OK
14019,世羅町,世羅,34.5833333,133.05,世羅(気),0.0,世羅(気),0.0,OK
14020,府中市,府中,34.5616666,133.2316666,府中(気),0.0,府中(気),0.0,OK
14021,広島市佐伯区,佐伯湯来,34.4983333,132.29,佐伯湯来(気),0.0,佐伯湯来(気),0.0,OK
14022,東広島市,志和,34.4983333,132.66,志和(気),0.0,志和(気),0.0,OK
14023,東広島市,東広島,34.4166666,132.7,東広島(気),0.0,東広島(気),0.0,OK
14024,三原市,本郷,34.435,132.9183333,本郷(気),0.0,本郷(気),0.0,OK
14025,福山市,福山,34.4466666,133.2466666,福山(気),0.0,福山(気),0.0,OK
14026,廿日市市,廿日市津田,34.36631,132.192537,廿日市津田(気),0.0,廿日市津田(気),0.0,OK
14027,広島市中区,広島,34.3983333,132.4616666,広島(気),0.0,広島(気),0.0,OK
14028,竹原市,竹原,34.331583,132.982163,竹原,0.0,竹原,0.0,OK
14029,尾道市,生口島,34.2783333,133.1233333,生口島(気),0.0,生口島(気),0.0,OK
14030,大竹市,大竹,34.2216666,132.22,大竹(気),0.0,大竹(気),0.0,OK
14031,呉市,呉,34.24,132.55,呉(気),0.0,呉(気),0.0,OK
14032,呉市,倉橋,34.1033333,132.5033333,倉橋(気),0.0,倉橋(気),0.0,OK
14033,呉市,呉市蒲刈,34.165,132.7483333,呉市蒲刈(気),0.0,呉市蒲刈(気),0.0,OK
